{
"type": "FeatureCollection",
"name": "speeches_2005",
"crs": { "type": "name", "properties": { "name": "urn:ogc:def:crs:OGC:1.3:CRS84" } },
"features": [
{ "type": "Feature", "properties": { "latitude": -43.532, "longitude": 172.6362, "location": "Christchurch", "year": 2005, "speech_count": 1 }, "geometry": { "type": "Point", "coordinates": [ 172.6362, -43.532 ] } },
{ "type": "Feature", "properties": { "latitude": -42.8819, "longitude": 147.3238, "location": "Hobart", "year": 2005, "speech_count": 1 }, "geometry": { "type": "Point", "coordinates": [ 147.3238, -42.8819 ] } },
{ "type": "Feature", "properties": { "latitude": -41.2865, "longitude": 174.7762, "location": "Wellington", "year": 2005, "speech_count": 1 }, "geometry": { "type": "Point", "coordinates": [ 174.7762, -41.2865 ] } },
{ "type": "Feature", "properties": { "latitude": -38.1382, "longitude": 176.2529, "location": "Rotorua", "year": 2005, "speech_count": 1 }, "geometry": { "type": "Point", "coordinates": [ 176.2529, -38.1382 ] } },
{ "type": "Feature", "properties": { "latitude": -37.8142, "longitude": 144.9631, "location": "Melbourne", "year": 2005, "speech_count": 3 }, "geometry": { "type": "Point", "coordinates": [ 144.9631, -37.8142 ] } },
{ "type": "Feature", "properties": { "latitude": -37.8136, "longitude": 144.9631, "location": "Victoria", "year": 2005, "speech_count": 1 }, "geometry": { "type": "Point", "coordinates": [ 144.9631, -37.8136 ] } },
{ "type": "Feature", "properties": { "latitude": -37.7867, "longitude": 175.2801, "location": "Hamilton", "year": 2005, "speech_count": 1 }, "geometry": { "type": "Point", "coordinates": [ 175.2801, -37.7867 ] } },
{ "type": "Feature", "properties": { "latitude": -36.8485, "longitude": 174.7633, "location": "Auckland", "year": 2005, "speech_count": 1 }, "geometry": { "type": "Point", "coordinates": [ 174.7633, -36.8485 ] } },
{ "type": "Feature", "properties": { "latitude": -34.0175, "longitude": 18.8439, "location": "Somerset West, Pretoria", "year": 2005, "speech_count": 1 }, "geometry": { "type": "Point", "coordinates": [ 18.8439, -34.0175 ] } },
{ "type": "Feature", "properties": { "latitude": -33.8688, "longitude": 151.2093, "location": "Sydney", "year": 2005, "speech_count": 6 }, "geometry": { "type": "Point", "coordinates": [ 151.2093, -33.8688 ] } },
{ "type": "Feature", "properties": { "latitude": -33.8679, "longitude": 151.2073, "location": "Sydney", "year": 2005, "speech_count": 1 }, "geometry": { "type": "Point", "coordinates": [ 151.2073, -33.8679 ] } },
{ "type": "Feature", "properties": { "latitude": -33.8675, "longitude": 151.207, "location": "Sydney", "year": 2005, "speech_count": 1 }, "geometry": { "type": "Point", "coordinates": [ 151.207, -33.8675 ] } },
{ "type": "Feature", "properties": { "latitude": -33.4489, "longitude": -70.6693, "location": "Santiago", "year": 2005, "speech_count": 1 }, "geometry": { "type": "Point", "coordinates": [ -70.6693, -33.4489 ] } },
{ "type": "Feature", "properties": { "latitude": -28.0167, "longitude": 153.4167, "location": "Gold Coast", "year": 2005, "speech_count": 1 }, "geometry": { "type": "Point", "coordinates": [ 153.4167, -28.0167 ] } },
{ "type": "Feature", "properties": { "latitude": -26.2041, "longitude": 28.0473, "location": "Johannesburg", "year": 2005, "speech_count": 5 }, "geometry": { "type": "Point", "coordinates": [ 28.0473, -26.2041 ] } },
{ "type": "Feature", "properties": { "latitude": -25.7461, "longitude": 28.1882, "location": "Pretoria", "year": 2005, "speech_count": 1 }, "geometry": { "type": "Point", "coordinates": [ 28.1882, -25.7461 ] } },
{ "type": "Feature", "properties": { "latitude": -25.7461, "longitude": 28.1889, "location": "Pretoria", "year": 2005, "speech_count": 2 }, "geometry": { "type": "Point", "coordinates": [ 28.1889, -25.7461 ] } },
{ "type": "Feature", "properties": { "latitude": -22.5749, "longitude": 17.0805, "location": "Windhoek", "year": 2005, "speech_count": 1 }, "geometry": { "type": "Point", "coordinates": [ 17.0805, -22.5749 ] } },
{ "type": "Feature", "properties": { "latitude": -20.1592, "longitude": 57.3425, "location": "Flic-en-Flac", "year": 2005, "speech_count": 1 }, "geometry": { "type": "Point", "coordinates": [ 57.3425, -20.1592 ] } },
{ "type": "Feature", "properties": { "latitude": -18.1416, "longitude": 178.4419, "location": "Suva", "year": 2005, "speech_count": 2 }, "geometry": { "type": "Point", "coordinates": [ 178.4419, -18.1416 ] } },
{ "type": "Feature", "properties": { "latitude": -18.1333, "longitude": 178.4333, "location": "Suva", "year": 2005, "speech_count": 1 }, "geometry": { "type": "Point", "coordinates": [ 178.4333, -18.1333 ] } },
{ "type": "Feature", "properties": { "latitude": -17.7542, "longitude": 177.4347, "location": "Nadi", "year": 2005, "speech_count": 1 }, "geometry": { "type": "Point", "coordinates": [ 177.4347, -17.7542 ] } },
{ "type": "Feature", "properties": { "latitude": -16.9167, "longitude": 145.7667, "location": "Cairns", "year": 2005, "speech_count": 1 }, "geometry": { "type": "Point", "coordinates": [ 145.7667, -16.9167 ] } },
{ "type": "Feature", "properties": { "latitude": -15.7797, "longitude": -47.9297, "location": "Brasilia", "year": 2005, "speech_count": 1 }, "geometry": { "type": "Point", "coordinates": [ -47.9297, -15.7797 ] } },
{ "type": "Feature", "properties": { "latitude": -15.4167, "longitude": 28.2833, "location": "Lusaka", "year": 2005, "speech_count": 7 }, "geometry": { "type": "Point", "coordinates": [ 28.2833, -15.4167 ] } },
{ "type": "Feature", "properties": { "latitude": -9.4712, "longitude": 147.187, "location": "Port Moresby", "year": 2005, "speech_count": 2 }, "geometry": { "type": "Point", "coordinates": [ 147.187, -9.4712 ] } },
{ "type": "Feature", "properties": { "latitude": -9.4439, "longitude": 147.1764, "location": "Port Moresby", "year": 2005, "speech_count": 1 }, "geometry": { "type": "Point", "coordinates": [ 147.1764, -9.4439 ] } },
{ "type": "Feature", "properties": { "latitude": -6.2146, "longitude": 106.8451, "location": "Jakarta", "year": 2005, "speech_count": 1 }, "geometry": { "type": "Point", "coordinates": [ 106.8451, -6.2146 ] } },
{ "type": "Feature", "properties": { "latitude": -6.1751, "longitude": 106.865, "location": "Jakarta", "year": 2005, "speech_count": 1 }, "geometry": { "type": "Point", "coordinates": [ 106.865, -6.1751 ] } },
{ "type": "Feature", "properties": { "latitude": -5.86, "longitude": 144.26, "location": "Mt Hagen", "year": 2005, "speech_count": 1 }, "geometry": { "type": "Point", "coordinates": [ 144.26, -5.86 ] } },
{ "type": "Feature", "properties": { "latitude": -0.2295, "longitude": -78.5243, "location": "Quito", "year": 2005, "speech_count": 1 }, "geometry": { "type": "Point", "coordinates": [ -78.5243, -0.2295 ] } },
{ "type": "Feature", "properties": { "latitude": 0.0521, "longitude": 32.4534, "location": "Entebbe", "year": 2005, "speech_count": 1 }, "geometry": { "type": "Point", "coordinates": [ 32.4534, 0.0521 ] } },
{ "type": "Feature", "properties": { "latitude": 0.3156, "longitude": 32.5753, "location": "Kampala", "year": 2005, "speech_count": 1 }, "geometry": { "type": "Point", "coordinates": [ 32.5753, 0.3156 ] } },
{ "type": "Feature", "properties": { "latitude": 1.2833, "longitude": 103.8331, "location": "Singapore", "year": 2005, "speech_count": 1 }, "geometry": { "type": "Point", "coordinates": [ 103.8331, 1.2833 ] } },
{ "type": "Feature", "properties": { "latitude": 1.2893819, "longitude": 103.8500714, "location": "Singapore", "year": 2005, "speech_count": 1 }, "geometry": { "type": "Point", "coordinates": [ 103.8500714, 1.2893819 ] } },
{ "type": "Feature", "properties": { "latitude": 1.2894, "longitude": 103.85, "location": "Singapore", "year": 2005, "speech_count": 4 }, "geometry": { "type": "Point", "coordinates": [ 103.85, 1.2894 ] } },
{ "type": "Feature", "properties": { "latitude": 2.9254, "longitude": 101.6563, "location": "Putrajaya", "year": 2005, "speech_count": 1 }, "geometry": { "type": "Point", "coordinates": [ 101.6563, 2.9254 ] } },
{ "type": "Feature", "properties": { "latitude": 3.139, "longitude": 101.6868, "location": "Kuala Lumpur", "year": 2005, "speech_count": 1 }, "geometry": { "type": "Point", "coordinates": [ 101.6868, 3.139 ] } },
{ "type": "Feature", "properties": { "latitude": 3.139, "longitude": 101.6869, "location": "Kuala Lumpur", "year": 2005, "speech_count": 12 }, "geometry": { "type": "Point", "coordinates": [ 101.6869, 3.139 ] } },
{ "type": "Feature", "properties": { "latitude": 3.1408, "longitude": 101.6865, "location": "Kuala Lumpur", "year": 2005, "speech_count": 1 }, "geometry": { "type": "Point", "coordinates": [ 101.6865, 3.1408 ] } },
{ "type": "Feature", "properties": { "latitude": 3.1408, "longitude": 101.6869, "location": "Kuala Lumpur", "year": 2005, "speech_count": 2 }, "geometry": { "type": "Point", "coordinates": [ 101.6869, 3.1408 ] } },
{ "type": "Feature", "properties": { "latitude": 3.1408, "longitude": 101.6931, "location": "Kuala Lumpur", "year": 2005, "speech_count": 5 }, "geometry": { "type": "Point", "coordinates": [ 101.6931, 3.1408 ] } },
{ "type": "Feature", "properties": { "latitude": 3.1502, "longitude": 101.6865, "location": "Kuala Lumpur", "year": 2005, "speech_count": 1 }, "geometry": { "type": "Point", "coordinates": [ 101.6865, 3.1502 ] } },
{ "type": "Feature", "properties": { "latitude": 3.1505, "longitude": 101.6865, "location": "Kuala Lumpur", "year": 2005, "speech_count": 1 }, "geometry": { "type": "Point", "coordinates": [ 101.6865, 3.1505 ] } },
{ "type": "Feature", "properties": { "latitude": 5.5586, "longitude": -0.2013, "location": "Accra", "year": 2005, "speech_count": 2 }, "geometry": { "type": "Point", "coordinates": [ -0.2013, 5.5586 ] } },
{ "type": "Feature", "properties": { "latitude": 6.8917, "longitude": 79.9008, "location": "Rajagiriya", "year": 2005, "speech_count": 1 }, "geometry": { "type": "Point", "coordinates": [ 79.9008, 6.8917 ] } },
{ "type": "Feature", "properties": { "latitude": 6.9319, "longitude": 79.8478, "location": "Colombo", "year": 2005, "speech_count": 5 }, "geometry": { "type": "Point", "coordinates": [ 79.8478, 6.9319 ] } },
{ "type": "Feature", "properties": { "latitude": 6.9344, "longitude": 79.8428, "location": "Colombo", "year": 2005, "speech_count": 1 }, "geometry": { "type": "Point", "coordinates": [ 79.8428, 6.9344 ] } },
{ "type": "Feature", "properties": { "latitude": 7.2906, "longitude": 80.6337, "location": "Kandy", "year": 2005, "speech_count": 1 }, "geometry": { "type": "Point", "coordinates": [ 80.6337, 7.2906 ] } },
{ "type": "Feature", "properties": { "latitude": 9.058, "longitude": 7.491, "location": "Abuja", "year": 2005, "speech_count": 1 }, "geometry": { "type": "Point", "coordinates": [ 7.491, 9.058 ] } },
{ "type": "Feature", "properties": { "latitude": 9.9312, "longitude": 76.2673, "location": "Cochin", "year": 2005, "speech_count": 1 }, "geometry": { "type": "Point", "coordinates": [ 76.2673, 9.9312 ] } },
{ "type": "Feature", "properties": { "latitude": 10.0035, "longitude": 76.2711, "location": "Ernakulam", "year": 2005, "speech_count": 1 }, "geometry": { "type": "Point", "coordinates": [ 76.2711, 10.0035 ] } },
{ "type": "Feature", "properties": { "latitude": 10.5198, "longitude": 76.2147, "location": "Thirussur", "year": 2005, "speech_count": 1 }, "geometry": { "type": "Point", "coordinates": [ 76.2147, 10.5198 ] } },
{ "type": "Feature", "properties": { "latitude": 10.6918, "longitude": -61.2225, "location": "Port of Spain", "year": 2005, "speech_count": 2 }, "geometry": { "type": "Point", "coordinates": [ -61.2225, 10.6918 ] } },
{ "type": "Feature", "properties": { "latitude": 10.6918, "longitude": -61.2225, "location": "Port-of-Spain", "year": 2005, "speech_count": 1 }, "geometry": { "type": "Point", "coordinates": [ -61.2225, 10.6918 ] } },
{ "type": "Feature", "properties": { "latitude": 12.911, "longitude": 74.8448, "location": "Mangalore", "year": 2005, "speech_count": 2 }, "geometry": { "type": "Point", "coordinates": [ 74.8448, 12.911 ] } },
{ "type": "Feature", "properties": { "latitude": 12.9716, "longitude": 77.5946, "location": "Bangalore", "year": 2005, "speech_count": 2 }, "geometry": { "type": "Point", "coordinates": [ 77.5946, 12.9716 ] } },
{ "type": "Feature", "properties": { "latitude": 13.0518, "longitude": -59.6125, "location": "Cave Hill", "year": 2005, "speech_count": 1 }, "geometry": { "type": "Point", "coordinates": [ -59.6125, 13.0518 ] } },
{ "type": "Feature", "properties": { "latitude": 13.0827, "longitude": 80.2707, "location": "Chennai", "year": 2005, "speech_count": 1 }, "geometry": { "type": "Point", "coordinates": [ 80.2707, 13.0827 ] } },
{ "type": "Feature", "properties": { "latitude": 13.7563, "longitude": 100.5018, "location": "Bangkok", "year": 2005, "speech_count": 4 }, "geometry": { "type": "Point", "coordinates": [ 100.5018, 13.7563 ] } },
{ "type": "Feature", "properties": { "latitude": 14.5547, "longitude": 121.0244, "location": "Makati", "year": 2005, "speech_count": 2 }, "geometry": { "type": "Point", "coordinates": [ 121.0244, 14.5547 ] } },
{ "type": "Feature", "properties": { "latitude": 14.579, "longitude": 120.979, "location": "Manila", "year": 2005, "speech_count": 1 }, "geometry": { "type": "Point", "coordinates": [ 120.979, 14.579 ] } },
{ "type": "Feature", "properties": { "latitude": 14.5995, "longitude": 120.9842, "location": "Manila", "year": 2005, "speech_count": 5 }, "geometry": { "type": "Point", "coordinates": [ 120.9842, 14.5995 ] } },
{ "type": "Feature", "properties": { "latitude": 17.0608, "longitude": -61.8427, "location": "Antigua", "year": 2005, "speech_count": 1 }, "geometry": { "type": "Point", "coordinates": [ -61.8427, 17.0608 ] } },
{ "type": "Feature", "properties": { "latitude": 17.3578, "longitude": -62.7829, "location": "St Kitts", "year": 2005, "speech_count": 2 }, "geometry": { "type": "Point", "coordinates": [ -62.7829, 17.3578 ] } },
{ "type": "Feature", "properties": { "latitude": 17.3578, "longitude": -62.7829, "location": "St. Kitts", "year": 2005, "speech_count": 1 }, "geometry": { "type": "Point", "coordinates": [ -62.7829, 17.3578 ] } },
{ "type": "Feature", "properties": { "latitude": 17.385, "longitude": 78.4867, "location": "Hyderabad", "year": 2005, "speech_count": 2 }, "geometry": { "type": "Point", "coordinates": [ 78.4867, 17.385 ] } },
{ "type": "Feature", "properties": { "latitude": 17.7333, "longitude": 83.3167, "location": "Visakhapatnam", "year": 2005, "speech_count": 1 }, "geometry": { "type": "Point", "coordinates": [ 83.3167, 17.7333 ] } },
{ "type": "Feature", "properties": { "latitude": 18.0189, "longitude": -76.7949, "location": "Kingston", "year": 2005, "speech_count": 1 }, "geometry": { "type": "Point", "coordinates": [ -76.7949, 18.0189 ] } },
{ "type": "Feature", "properties": { "latitude": 18.0422, "longitude": -77.2428, "location": "St. James", "year": 2005, "speech_count": 1 }, "geometry": { "type": "Point", "coordinates": [ -77.2428, 18.0422 ] } },
{ "type": "Feature", "properties": { "latitude": 18.5204, "longitude": 73.8567, "location": "Pune", "year": 2005, "speech_count": 2 }, "geometry": { "type": "Point", "coordinates": [ 73.8567, 18.5204 ] } },
{ "type": "Feature", "properties": { "latitude": 18.9667, "longitude": 72.8333, "location": "Bombay", "year": 2005, "speech_count": 2 }, "geometry": { "type": "Point", "coordinates": [ 72.8333, 18.9667 ] } },
{ "type": "Feature", "properties": { "latitude": 19.0759837, "longitude": 72.8776559, "location": "Bombay", "year": 2005, "speech_count": 2 }, "geometry": { "type": "Point", "coordinates": [ 72.8776559, 19.0759837 ] } },
{ "type": "Feature", "properties": { "latitude": 19.076, "longitude": 72.8777, "location": "Bombay", "year": 2005, "speech_count": 14 }, "geometry": { "type": "Point", "coordinates": [ 72.8777, 19.076 ] } },
{ "type": "Feature", "properties": { "latitude": 19.3133, "longitude": -81.2546, "location": "Grand Cayman", "year": 2005, "speech_count": 1 }, "geometry": { "type": "Point", "coordinates": [ -81.2546, 19.3133 ] } },
{ "type": "Feature", "properties": { "latitude": 19.4326, "longitude": -99.1332, "location": "Mexico City", "year": 2005, "speech_count": 1 }, "geometry": { "type": "Point", "coordinates": [ -99.1332, 19.4326 ] } },
{ "type": "Feature", "properties": { "latitude": 22.2855, "longitude": 114.1577, "location": "Hong Kong", "year": 2005, "speech_count": 1 }, "geometry": { "type": "Point", "coordinates": [ 114.1577, 22.2855 ] } },
{ "type": "Feature", "properties": { "latitude": 22.3027, "longitude": 114.1774, "location": "Hong Kong", "year": 2005, "speech_count": 2 }, "geometry": { "type": "Point", "coordinates": [ 114.1774, 22.3027 ] } },
{ "type": "Feature", "properties": { "latitude": 22.3027, "longitude": 114.1777, "location": "Hong Kong", "year": 2005, "speech_count": 2 }, "geometry": { "type": "Point", "coordinates": [ 114.1777, 22.3027 ] } },
{ "type": "Feature", "properties": { "latitude": 22.3027, "longitude": 114.1786, "location": "Hong Kong", "year": 2005, "speech_count": 1 }, "geometry": { "type": "Point", "coordinates": [ 114.1786, 22.3027 ] } },
{ "type": "Feature", "properties": { "latitude": 22.3193, "longitude": 114.1694, "location": "Hong Kong", "year": 2005, "speech_count": 4 }, "geometry": { "type": "Point", "coordinates": [ 114.1694, 22.3193 ] } },
{ "type": "Feature", "properties": { "latitude": 22.3193, "longitude": 114.1747, "location": "Hong Kong", "year": 2005, "speech_count": 1 }, "geometry": { "type": "Point", "coordinates": [ 114.1747, 22.3193 ] } },
{ "type": "Feature", "properties": { "latitude": 22.3964, "longitude": 114.1095, "location": "Hong Kong", "year": 2005, "speech_count": 1 }, "geometry": { "type": "Point", "coordinates": [ 114.1095, 22.3964 ] } },
{ "type": "Feature", "properties": { "latitude": 24.8607, "longitude": 67.0011, "location": "Karachi", "year": 2005, "speech_count": 4 }, "geometry": { "type": "Point", "coordinates": [ 67.0011, 24.8607 ] } },
{ "type": "Feature", "properties": { "latitude": 24.8607, "longitude": 67.0099, "location": "Karachi", "year": 2005, "speech_count": 1 }, "geometry": { "type": "Point", "coordinates": [ 67.0099, 24.8607 ] } },
{ "type": "Feature", "properties": { "latitude": 24.8608, "longitude": 67.009, "location": "Karachi", "year": 2005, "speech_count": 2 }, "geometry": { "type": "Point", "coordinates": [ 67.009, 24.8608 ] } },
{ "type": "Feature", "properties": { "latitude": 25.0667, "longitude": -77.3433, "location": "Nassau", "year": 2005, "speech_count": 1 }, "geometry": { "type": "Point", "coordinates": [ -77.3433, 25.0667 ] } },
{ "type": "Feature", "properties": { "latitude": 25.2854, "longitude": 51.531, "location": "Doha", "year": 2005, "speech_count": 2 }, "geometry": { "type": "Point", "coordinates": [ 51.531, 25.2854 ] } },
{ "type": "Feature", "properties": { "latitude": 26.2286, "longitude": 50.5847, "location": "Manama", "year": 2005, "speech_count": 1 }, "geometry": { "type": "Point", "coordinates": [ 50.5847, 26.2286 ] } },
{ "type": "Feature", "properties": { "latitude": 26.5783, "longitude": 106.7134, "location": "Guiyang", "year": 2005, "speech_count": 1 }, "geometry": { "type": "Point", "coordinates": [ 106.7134, 26.5783 ] } },
{ "type": "Feature", "properties": { "latitude": 26.7034, "longitude": -80.0568, "location": "Palm Beach", "year": 2005, "speech_count": 1 }, "geometry": { "type": "Point", "coordinates": [ -80.0568, 26.7034 ] } },
{ "type": "Feature", "properties": { "latitude": 29.4241, "longitude": -98.4936, "location": "San Antonio", "year": 2005, "speech_count": 1 }, "geometry": { "type": "Point", "coordinates": [ -98.4936, 29.4241 ] } },
{ "type": "Feature", "properties": { "latitude": 29.4241, "longitude": -98.4936, "location": "San Antonio, Texas", "year": 2005, "speech_count": 2 }, "geometry": { "type": "Point", "coordinates": [ -98.4936, 29.4241 ] } },
{ "type": "Feature", "properties": { "latitude": 29.563, "longitude": 106.552, "location": "Chongqing", "year": 2005, "speech_count": 1 }, "geometry": { "type": "Point", "coordinates": [ 106.552, 29.563 ] } },
{ "type": "Feature", "properties": { "latitude": 31.2304, "longitude": 121.4737, "location": "Shanghai", "year": 2005, "speech_count": 7 }, "geometry": { "type": "Point", "coordinates": [ 121.4737, 31.2304 ] } },
{ "type": "Feature", "properties": { "latitude": 31.5204, "longitude": 74.3587, "location": "Lahore", "year": 2005, "speech_count": 3 }, "geometry": { "type": "Point", "coordinates": [ 74.3587, 31.5204 ] } },
{ "type": "Feature", "properties": { "latitude": 31.7683, "longitude": 35.2137, "location": "Jerusalem", "year": 2005, "speech_count": 3 }, "geometry": { "type": "Point", "coordinates": [ 35.2137, 31.7683 ] } },
{ "type": "Feature", "properties": { "latitude": 31.7683, "longitude": 35.2152, "location": "Jerusalem", "year": 2005, "speech_count": 1 }, "geometry": { "type": "Point", "coordinates": [ 35.2152, 31.7683 ] } },
{ "type": "Feature", "properties": { "latitude": 31.8949, "longitude": 34.8075, "location": "Rehovot", "year": 2005, "speech_count": 1 }, "geometry": { "type": "Point", "coordinates": [ 34.8075, 31.8949 ] } },
{ "type": "Feature", "properties": { "latitude": 32.0853, "longitude": 34.7818, "location": "Tel Aviv", "year": 2005, "speech_count": 2 }, "geometry": { "type": "Point", "coordinates": [ 34.7818, 32.0853 ] } },
{ "type": "Feature", "properties": { "latitude": 32.8167, "longitude": 34.9833, "location": "Haifa", "year": 2005, "speech_count": 1 }, "geometry": { "type": "Point", "coordinates": [ 34.9833, 32.8167 ] } },
{ "type": "Feature", "properties": { "latitude": 33.2384, "longitude": 131.6124, "location": "Oita", "year": 2005, "speech_count": 1 }, "geometry": { "type": "Point", "coordinates": [ 131.6124, 33.2384 ] } },
{ "type": "Feature", "properties": { "latitude": 33.7225, "longitude": -116.3747, "location": "Palm Desert", "year": 2005, "speech_count": 1 }, "geometry": { "type": "Point", "coordinates": [ -116.3747, 33.7225 ] } },
{ "type": "Feature", "properties": { "latitude": 33.7294, "longitude": 73.0931, "location": "Islamabad", "year": 2005, "speech_count": 6 }, "geometry": { "type": "Point", "coordinates": [ 73.0931, 33.7294 ] } },
{ "type": "Feature", "properties": { "latitude": 33.749, "longitude": -84.388, "location": "Atlanta", "year": 2005, "speech_count": 1 }, "geometry": { "type": "Point", "coordinates": [ -84.388, 33.749 ] } },
{ "type": "Feature", "properties": { "latitude": 34.0736, "longitude": -118.4065, "location": "Beverly Hills", "year": 2005, "speech_count": 1 }, "geometry": { "type": "Point", "coordinates": [ -118.4065, 34.0736 ] } },
{ "type": "Feature", "properties": { "latitude": 34.6937, "longitude": 135.5023, "location": "Osaka", "year": 2005, "speech_count": 1 }, "geometry": { "type": "Point", "coordinates": [ 135.5023, 34.6937 ] } },
{ "type": "Feature", "properties": { "latitude": 35.1814, "longitude": 136.9064, "location": "Nagoya", "year": 2005, "speech_count": 1 }, "geometry": { "type": "Point", "coordinates": [ 136.9064, 35.1814 ] } },
{ "type": "Feature", "properties": { "latitude": 35.6895, "longitude": 139.6917, "location": "Tokyo", "year": 2005, "speech_count": 13 }, "geometry": { "type": "Point", "coordinates": [ 139.6917, 35.6895 ] } },
{ "type": "Feature", "properties": { "latitude": 35.8456, "longitude": -86.3903, "location": "Murfreesboro", "year": 2005, "speech_count": 1 }, "geometry": { "type": "Point", "coordinates": [ -86.3903, 35.8456 ] } },
{ "type": "Feature", "properties": { "latitude": 35.9078, "longitude": 14.4946, "location": "St. Julians", "year": 2005, "speech_count": 1 }, "geometry": { "type": "Point", "coordinates": [ 14.4946, 35.9078 ] } },
{ "type": "Feature", "properties": { "latitude": 35.9078, "longitude": 14.498, "location": "St Julians", "year": 2005, "speech_count": 1 }, "geometry": { "type": "Point", "coordinates": [ 14.498, 35.9078 ] } },
{ "type": "Feature", "properties": { "latitude": 35.9132, "longitude": -79.0558, "location": "Chapel Hill, North Carolina", "year": 2005, "speech_count": 1 }, "geometry": { "type": "Point", "coordinates": [ -79.0558, 35.9132 ] } },
{ "type": "Feature", "properties": { "latitude": 36.3058, "longitude": -88.8553, "location": "Martin", "year": 2005, "speech_count": 1 }, "geometry": { "type": "Point", "coordinates": [ -88.8553, 36.3058 ] } },
{ "type": "Feature", "properties": { "latitude": 37.4275, "longitude": -122.1697, "location": "Stanford", "year": 2005, "speech_count": 2 }, "geometry": { "type": "Point", "coordinates": [ -122.1697, 37.4275 ] } },
{ "type": "Feature", "properties": { "latitude": 37.5407, "longitude": -77.436, "location": "Richmond", "year": 2005, "speech_count": 1 }, "geometry": { "type": "Point", "coordinates": [ -77.436, 37.5407 ] } },
{ "type": "Feature", "properties": { "latitude": 37.5665, "longitude": 126.978, "location": "Seoul", "year": 2005, "speech_count": 1 }, "geometry": { "type": "Point", "coordinates": [ 126.978, 37.5665 ] } },
{ "type": "Feature", "properties": { "latitude": 37.7749, "longitude": -122.4194, "location": "San Francisco", "year": 2005, "speech_count": 2 }, "geometry": { "type": "Point", "coordinates": [ -122.4194, 37.7749 ] } },
{ "type": "Feature", "properties": { "latitude": 37.9792, "longitude": 23.7166, "location": "Athens", "year": 2005, "speech_count": 1 }, "geometry": { "type": "Point", "coordinates": [ 23.7166, 37.9792 ] } },
{ "type": "Feature", "properties": { "latitude": 37.9838, "longitude": 23.7275, "location": "Athens", "year": 2005, "speech_count": 2 }, "geometry": { "type": "Point", "coordinates": [ 23.7275, 37.9838 ] } },
{ "type": "Feature", "properties": { "latitude": 38.4189, "longitude": 27.1287, "location": "Yzmir", "year": 2005, "speech_count": 1 }, "geometry": { "type": "Point", "coordinates": [ 27.1287, 38.4189 ] } },
{ "type": "Feature", "properties": { "latitude": 38.8816, "longitude": -77.1024, "location": "Arlington", "year": 2005, "speech_count": 1 }, "geometry": { "type": "Point", "coordinates": [ -77.1024, 38.8816 ] } },
{ "type": "Feature", "properties": { "latitude": 38.8921, "longitude": -77.0369, "location": "Washington", "year": 2005, "speech_count": 1 }, "geometry": { "type": "Point", "coordinates": [ -77.0369, 38.8921 ] } },
{ "type": "Feature", "properties": { "latitude": 38.8951, "longitude": -77.0369, "location": "Washington", "year": 2005, "speech_count": 1 }, "geometry": { "type": "Point", "coordinates": [ -77.0369, 38.8951 ] } },
{ "type": "Feature", "properties": { "latitude": 38.8951, "longitude": -77.0364, "location": "Washington", "year": 2005, "speech_count": 28 }, "geometry": { "type": "Point", "coordinates": [ -77.0364, 38.8951 ] } },
{ "type": "Feature", "properties": { "latitude": 38.9072, "longitude": -77.0369, "location": "Washington", "year": 2005, "speech_count": 4 }, "geometry": { "type": "Point", "coordinates": [ -77.0369, 38.9072 ] } },
{ "type": "Feature", "properties": { "latitude": 39.0997, "longitude": -94.5786, "location": "Kansas City", "year": 2005, "speech_count": 1 }, "geometry": { "type": "Point", "coordinates": [ -94.5786, 39.0997 ] } },
{ "type": "Feature", "properties": { "latitude": 39.2904, "longitude": -76.6122, "location": "Baltimore", "year": 2005, "speech_count": 1 }, "geometry": { "type": "Point", "coordinates": [ -76.6122, 39.2904 ] } },
{ "type": "Feature", "properties": { "latitude": 39.7589, "longitude": -84.1916, "location": "Dayton", "year": 2005, "speech_count": 1 }, "geometry": { "type": "Point", "coordinates": [ -84.1916, 39.7589 ] } },
{ "type": "Feature", "properties": { "latitude": 39.8698, "longitude": -75.3731, "location": "Chester, Pennsylvania", "year": 2005, "speech_count": 1 }, "geometry": { "type": "Point", "coordinates": [ -75.3731, 39.8698 ] } },
{ "type": "Feature", "properties": { "latitude": 39.9042, "longitude": 116.4074, "location": "Beijing", "year": 2005, "speech_count": 16 }, "geometry": { "type": "Point", "coordinates": [ 116.4074, 39.9042 ] } },
{ "type": "Feature", "properties": { "latitude": 39.9208, "longitude": 32.8541, "location": "Ankara", "year": 2005, "speech_count": 1 }, "geometry": { "type": "Point", "coordinates": [ 32.8541, 39.9208 ] } },
{ "type": "Feature", "properties": { "latitude": 39.9526, "longitude": -75.1652, "location": "Philadelphia", "year": 2005, "speech_count": 5 }, "geometry": { "type": "Point", "coordinates": [ -75.1652, 39.9526 ] } },
{ "type": "Feature", "properties": { "latitude": 40.1792, "longitude": 44.5063, "location": "Yerevan", "year": 2005, "speech_count": 1 }, "geometry": { "type": "Point", "coordinates": [ 44.5063, 40.1792 ] } },
{ "type": "Feature", "properties": { "latitude": 40.2287, "longitude": -74.7503, "location": "Trenton", "year": 2005, "speech_count": 1 }, "geometry": { "type": "Point", "coordinates": [ -74.7503, 40.2287 ] } },
{ "type": "Feature", "properties": { "latitude": 40.3439, "longitude": -74.6579, "location": "Princeton, NJ", "year": 2005, "speech_count": 1 }, "geometry": { "type": "Point", "coordinates": [ -74.6579, 40.3439 ] } },
{ "type": "Feature", "properties": { "latitude": 40.4167, "longitude": -3.7033, "location": "Madrid", "year": 2005, "speech_count": 1 }, "geometry": { "type": "Point", "coordinates": [ -3.7033, 40.4167 ] } },
{ "type": "Feature", "properties": { "latitude": 40.4168, "longitude": -3.7038, "location": "Madrid", "year": 2005, "speech_count": 1 }, "geometry": { "type": "Point", "coordinates": [ -3.7038, 40.4168 ] } },
{ "type": "Feature", "properties": { "latitude": 40.4406, "longitude": -79.9959, "location": "Pittsburgh", "year": 2005, "speech_count": 1 }, "geometry": { "type": "Point", "coordinates": [ -79.9959, 40.4406 ] } },
{ "type": "Feature", "properties": { "latitude": 40.5774, "longitude": -77.2322, "location": "Pennsylvania", "year": 2005, "speech_count": 1 }, "geometry": { "type": "Point", "coordinates": [ -77.2322, 40.5774 ] } },
{ "type": "Feature", "properties": { "latitude": 40.7127, "longitude": -74.0059, "location": "New York", "year": 2005, "speech_count": 3 }, "geometry": { "type": "Point", "coordinates": [ -74.0059, 40.7127 ] } },
{ "type": "Feature", "properties": { "latitude": 40.7128, "longitude": -74.006, "location": "New York", "year": 2005, "speech_count": 2 }, "geometry": { "type": "Point", "coordinates": [ -74.006, 40.7128 ] } },
{ "type": "Feature", "properties": { "latitude": 40.7128, "longitude": -74.0059, "location": "New York", "year": 2005, "speech_count": 12 }, "geometry": { "type": "Point", "coordinates": [ -74.0059, 40.7128 ] } },
{ "type": "Feature", "properties": { "latitude": 40.8184, "longitude": -81.9317, "location": "Wooster", "year": 2005, "speech_count": 1 }, "geometry": { "type": "Point", "coordinates": [ -81.9317, 40.8184 ] } },
{ "type": "Feature", "properties": { "latitude": 41.0082, "longitude": 28.9784, "location": "Istanbul", "year": 2005, "speech_count": 5 }, "geometry": { "type": "Point", "coordinates": [ 28.9784, 41.0082 ] } },
{ "type": "Feature", "properties": { "latitude": 41.0138, "longitude": 28.9551, "location": "Istanbul", "year": 2005, "speech_count": 2 }, "geometry": { "type": "Point", "coordinates": [ 28.9551, 41.0138 ] } },
{ "type": "Feature", "properties": { "latitude": 41.1201, "longitude": 16.8699, "location": "Bari", "year": 2005, "speech_count": 1 }, "geometry": { "type": "Point", "coordinates": [ 16.8699, 41.1201 ] } },
{ "type": "Feature", "properties": { "latitude": 41.3199, "longitude": 19.4544, "location": "Durrës", "year": 2005, "speech_count": 1 }, "geometry": { "type": "Point", "coordinates": [ 19.4544, 41.3199 ] } },
{ "type": "Feature", "properties": { "latitude": 41.3275, "longitude": 19.8187, "location": "Tirana", "year": 2005, "speech_count": 7 }, "geometry": { "type": "Point", "coordinates": [ 19.8187, 41.3275 ] } },
{ "type": "Feature", "properties": { "latitude": 41.3275, "longitude": 19.8189, "location": "Tirana", "year": 2005, "speech_count": 9 }, "geometry": { "type": "Point", "coordinates": [ 19.8189, 41.3275 ] } },
{ "type": "Feature", "properties": { "latitude": 41.3275453, "longitude": 19.8186918, "location": "Tirana", "year": 2005, "speech_count": 1 }, "geometry": { "type": "Point", "coordinates": [ 19.8186918, 41.3275453 ] } },
{ "type": "Feature", "properties": { "latitude": 41.3851, "longitude": 2.1734, "location": "Barcelona", "year": 2005, "speech_count": 1 }, "geometry": { "type": "Point", "coordinates": [ 2.1734, 41.3851 ] } },
{ "type": "Feature", "properties": { "latitude": 41.4434, "longitude": -73.931, "location": "Annandale-on-Hudson", "year": 2005, "speech_count": 1 }, "geometry": { "type": "Point", "coordinates": [ -73.931, 41.4434 ] } },
{ "type": "Feature", "properties": { "latitude": 41.4995, "longitude": -81.6954, "location": "Cleveland", "year": 2005, "speech_count": 1 }, "geometry": { "type": "Point", "coordinates": [ -81.6954, 41.4995 ] } },
{ "type": "Feature", "properties": { "latitude": 41.85, "longitude": -87.65, "location": "Chicago", "year": 2005, "speech_count": 1 }, "geometry": { "type": "Point", "coordinates": [ -87.65, 41.85 ] } },
{ "type": "Feature", "properties": { "latitude": 41.8781, "longitude": -87.6298, "location": "Chicago", "year": 2005, "speech_count": 4 }, "geometry": { "type": "Point", "coordinates": [ -87.6298, 41.8781 ] } },
{ "type": "Feature", "properties": { "latitude": 41.8902, "longitude": 12.4923, "location": "Rome", "year": 2005, "speech_count": 6 }, "geometry": { "type": "Point", "coordinates": [ 12.4923, 41.8902 ] } },
{ "type": "Feature", "properties": { "latitude": 42.3601, "longitude": -71.0589, "location": "Boston", "year": 2005, "speech_count": 2 }, "geometry": { "type": "Point", "coordinates": [ -71.0589, 42.3601 ] } },
{ "type": "Feature", "properties": { "latitude": 42.6628, "longitude": 21.1646, "location": "Prishtina", "year": 2005, "speech_count": 1 }, "geometry": { "type": "Point", "coordinates": [ 21.1646, 42.6628 ] } },
{ "type": "Feature", "properties": { "latitude": 42.6977, "longitude": 23.3219, "location": "Sofia", "year": 2005, "speech_count": 1 }, "geometry": { "type": "Point", "coordinates": [ 23.3219, 42.6977 ] } },
{ "type": "Feature", "properties": { "latitude": 42.8864, "longitude": -78.8784, "location": "Buffalo", "year": 2005, "speech_count": 1 }, "geometry": { "type": "Point", "coordinates": [ -78.8784, 42.8864 ] } },
{ "type": "Feature", "properties": { "latitude": 43.4799, "longitude": -110.7821, "location": "Jackson Hole", "year": 2005, "speech_count": 1 }, "geometry": { "type": "Point", "coordinates": [ -110.7821, 43.4799 ] } },
{ "type": "Feature", "properties": { "latitude": 43.5831, "longitude": -110.8334, "location": "Jackson Hole", "year": 2005, "speech_count": 3 }, "geometry": { "type": "Point", "coordinates": [ -110.8334, 43.5831 ] } },
{ "type": "Feature", "properties": { "latitude": 43.5834, "longitude": -110.7821, "location": "Jackson Hole", "year": 2005, "speech_count": 1 }, "geometry": { "type": "Point", "coordinates": [ -110.7821, 43.5834 ] } },
{ "type": "Feature", "properties": { "latitude": 43.5844, "longitude": -110.8528, "location": "Jackson Hole", "year": 2005, "speech_count": 1 }, "geometry": { "type": "Point", "coordinates": [ -110.8528, 43.5844 ] } },
{ "type": "Feature", "properties": { "latitude": 43.6532, "longitude": -79.3832, "location": "Ontario", "year": 2005, "speech_count": 1 }, "geometry": { "type": "Point", "coordinates": [ -79.3832, 43.6532 ] } },
{ "type": "Feature", "properties": { "latitude": 43.6532, "longitude": -79.3832, "location": "Toronto", "year": 2005, "speech_count": 5 }, "geometry": { "type": "Point", "coordinates": [ -79.3832, 43.6532 ] } },
{ "type": "Feature", "properties": { "latitude": 43.7267, "longitude": -93.2578, "location": "St Michael", "year": 2005, "speech_count": 1 }, "geometry": { "type": "Point", "coordinates": [ -93.2578, 43.7267 ] } },
{ "type": "Feature", "properties": { "latitude": 44.4322, "longitude": 26.1063, "location": "Bucharest", "year": 2005, "speech_count": 2 }, "geometry": { "type": "Point", "coordinates": [ 26.1063, 44.4322 ] } },
{ "type": "Feature", "properties": { "latitude": 44.6451, "longitude": 10.9228, "location": "Modena", "year": 2005, "speech_count": 1 }, "geometry": { "type": "Point", "coordinates": [ 10.9228, 44.6451 ] } },
{ "type": "Feature", "properties": { "latitude": 44.8181, "longitude": 20.4681, "location": "Belgrade", "year": 2005, "speech_count": 1 }, "geometry": { "type": "Point", "coordinates": [ 20.4681, 44.8181 ] } },
{ "type": "Feature", "properties": { "latitude": 44.8186, "longitude": 20.4681, "location": "Belgrade", "year": 2005, "speech_count": 2 }, "geometry": { "type": "Point", "coordinates": [ 20.4681, 44.8186 ] } },
{ "type": "Feature", "properties": { "latitude": 45.4215, "longitude": -75.6972, "location": "Ottawa", "year": 2005, "speech_count": 6 }, "geometry": { "type": "Point", "coordinates": [ -75.6972, 45.4215 ] } },
{ "type": "Feature", "properties": { "latitude": 45.4215, "longitude": -75.6919, "location": "Ottawa", "year": 2005, "speech_count": 1 }, "geometry": { "type": "Point", "coordinates": [ -75.6919, 45.4215 ] } },
{ "type": "Feature", "properties": { "latitude": 45.5017, "longitude": -73.5673, "location": "Montreal", "year": 2005, "speech_count": 1 }, "geometry": { "type": "Point", "coordinates": [ -73.5673, 45.5017 ] } },
{ "type": "Feature", "properties": { "latitude": 45.5017, "longitude": -73.5673, "location": "Montréal", "year": 2005, "speech_count": 3 }, "geometry": { "type": "Point", "coordinates": [ -73.5673, 45.5017 ] } },
{ "type": "Feature", "properties": { "latitude": 45.5234, "longitude": -122.6762, "location": "Portland", "year": 2005, "speech_count": 1 }, "geometry": { "type": "Point", "coordinates": [ -122.6762, 45.5234 ] } },
{ "type": "Feature", "properties": { "latitude": 46.0023, "longitude": 8.9519, "location": "Lugano", "year": 2005, "speech_count": 1 }, "geometry": { "type": "Point", "coordinates": [ 8.9519, 46.0023 ] } },
{ "type": "Feature", "properties": { "latitude": 46.2018, "longitude": 6.1418, "location": "Geneva", "year": 2005, "speech_count": 1 }, "geometry": { "type": "Point", "coordinates": [ 6.1418, 46.2018 ] } },
{ "type": "Feature", "properties": { "latitude": 46.2044, "longitude": 6.1432, "location": "Geneva", "year": 2005, "speech_count": 2 }, "geometry": { "type": "Point", "coordinates": [ 6.1432, 46.2044 ] } },
{ "type": "Feature", "properties": { "latitude": 46.2909, "longitude": 7.5596, "location": "Sierre", "year": 2005, "speech_count": 1 }, "geometry": { "type": "Point", "coordinates": [ 7.5596, 46.2909 ] } },
{ "type": "Feature", "properties": { "latitude": 46.7524, "longitude": 7.6304, "location": "Thun", "year": 2005, "speech_count": 1 }, "geometry": { "type": "Point", "coordinates": [ 7.6304, 46.7524 ] } },
{ "type": "Feature", "properties": { "latitude": 46.8103, "longitude": 9.8319, "location": "Davos", "year": 2005, "speech_count": 1 }, "geometry": { "type": "Point", "coordinates": [ 9.8319, 46.8103 ] } },
{ "type": "Feature", "properties": { "latitude": 46.9479, "longitude": 7.4446, "location": "Berne", "year": 2005, "speech_count": 2 }, "geometry": { "type": "Point", "coordinates": [ 7.4446, 46.9479 ] } },
{ "type": "Feature", "properties": { "latitude": 46.948, "longitude": 7.4458, "location": "Berne", "year": 2005, "speech_count": 1 }, "geometry": { "type": "Point", "coordinates": [ 7.4458, 46.948 ] } },
{ "type": "Feature", "properties": { "latitude": 46.948, "longitude": 7.4474, "location": "Berne", "year": 2005, "speech_count": 1 }, "geometry": { "type": "Point", "coordinates": [ 7.4474, 46.948 ] } },
{ "type": "Feature", "properties": { "latitude": 46.9481, "longitude": 7.4474, "location": "Berne", "year": 2005, "speech_count": 2 }, "geometry": { "type": "Point", "coordinates": [ 7.4474, 46.9481 ] } },
{ "type": "Feature", "properties": { "latitude": 47.2672, "longitude": 11.3929, "location": "Innsbruck", "year": 2005, "speech_count": 1 }, "geometry": { "type": "Point", "coordinates": [ 11.3929, 47.2672 ] } },
{ "type": "Feature", "properties": { "latitude": 47.3769, "longitude": 8.5417, "location": "Zurich", "year": 2005, "speech_count": 6 }, "geometry": { "type": "Point", "coordinates": [ 8.5417, 47.3769 ] } },
{ "type": "Feature", "properties": { "latitude": 47.4236, "longitude": 9.3778, "location": "St. Gallen", "year": 2005, "speech_count": 2 }, "geometry": { "type": "Point", "coordinates": [ 9.3778, 47.4236 ] } },
{ "type": "Feature", "properties": { "latitude": 47.5582, "longitude": 7.5863, "location": "Basel", "year": 2005, "speech_count": 1 }, "geometry": { "type": "Point", "coordinates": [ 7.5863, 47.5582 ] } },
{ "type": "Feature", "properties": { "latitude": 47.6062, "longitude": -122.3321, "location": "Seattle", "year": 2005, "speech_count": 1 }, "geometry": { "type": "Point", "coordinates": [ -122.3321, 47.6062 ] } },
{ "type": "Feature", "properties": { "latitude": 47.6781, "longitude": 8.8864, "location": "Stein am Rhein", "year": 2005, "speech_count": 1 }, "geometry": { "type": "Point", "coordinates": [ 8.8864, 47.6781 ] } },
{ "type": "Feature", "properties": { "latitude": 47.7974, "longitude": 13.0458, "location": "Salzburg", "year": 2005, "speech_count": 1 }, "geometry": { "type": "Point", "coordinates": [ 13.0458, 47.7974 ] } },
{ "type": "Feature", "properties": { "latitude": 47.9984, "longitude": 7.8424, "location": "Freiburg im Breisgau", "year": 2005, "speech_count": 1 }, "geometry": { "type": "Point", "coordinates": [ 7.8424, 47.9984 ] } },
{ "type": "Feature", "properties": { "latitude": 48.2082, "longitude": 16.3738, "location": "Vienna", "year": 2005, "speech_count": 6 }, "geometry": { "type": "Point", "coordinates": [ 16.3738, 48.2082 ] } },
{ "type": "Feature", "properties": { "latitude": 48.8566, "longitude": 2.3522, "location": "Paris", "year": 2005, "speech_count": 7 }, "geometry": { "type": "Point", "coordinates": [ 2.3522, 48.8566 ] } },
{ "type": "Feature", "properties": { "latitude": 48.8582, "longitude": 2.2945, "location": "Paris", "year": 2005, "speech_count": 1 }, "geometry": { "type": "Point", "coordinates": [ 2.2945, 48.8582 ] } },
{ "type": "Feature", "properties": { "latitude": 49.0069, "longitude": 8.4037, "location": "Karlsruhe", "year": 2005, "speech_count": 1 }, "geometry": { "type": "Point", "coordinates": [ 8.4037, 49.0069 ] } },
{ "type": "Feature", "properties": { "latitude": 49.2827, "longitude": -123.1207, "location": "Vancouver", "year": 2005, "speech_count": 2 }, "geometry": { "type": "Point", "coordinates": [ -123.1207, 49.2827 ] } },
{ "type": "Feature", "properties": { "latitude": 49.4878, "longitude": 8.4667, "location": "Mannheim", "year": 2005, "speech_count": 1 }, "geometry": { "type": "Point", "coordinates": [ 8.4667, 49.4878 ] } },
{ "type": "Feature", "properties": { "latitude": 49.5989, "longitude": 6.1225, "location": "Charlemagne", "year": 2005, "speech_count": 1 }, "geometry": { "type": "Point", "coordinates": [ 6.1225, 49.5989 ] } },
{ "type": "Feature", "properties": { "latitude": 49.6116, "longitude": 6.1319, "location": "Luxembourg", "year": 2005, "speech_count": 4 }, "geometry": { "type": "Point", "coordinates": [ 6.1319, 49.6116 ] } },
{ "type": "Feature", "properties": { "latitude": 49.8951, "longitude": -97.1384, "location": "Winnipeg", "year": 2005, "speech_count": 1 }, "geometry": { "type": "Point", "coordinates": [ -97.1384, 49.8951 ] } },
{ "type": "Feature", "properties": { "latitude": 49.9783, "longitude": 8.1456, "location": "Eltville", "year": 2005, "speech_count": 1 }, "geometry": { "type": "Point", "coordinates": [ 8.1456, 49.9783 ] } },
{ "type": "Feature", "properties": { "latitude": 49.9811, "longitude": 8.1462, "location": "Eltville", "year": 2005, "speech_count": 1 }, "geometry": { "type": "Point", "coordinates": [ 8.1462, 49.9811 ] } },
{ "type": "Feature", "properties": { "latitude": 49.9833, "longitude": 8.1667, "location": "Eltville", "year": 2005, "speech_count": 1 }, "geometry": { "type": "Point", "coordinates": [ 8.1667, 49.9833 ] } },
{ "type": "Feature", "properties": { "latitude": 50.0755, "longitude": 14.4378, "location": "Prague", "year": 2005, "speech_count": 1 }, "geometry": { "type": "Point", "coordinates": [ 14.4378, 50.0755 ] } },
{ "type": "Feature", "properties": { "latitude": 50.088, "longitude": 14.4208, "location": "Prague", "year": 2005, "speech_count": 1 }, "geometry": { "type": "Point", "coordinates": [ 14.4208, 50.088 ] } },
{ "type": "Feature", "properties": { "latitude": 50.1109, "longitude": 8.6821, "location": "Frankfurt", "year": 2005, "speech_count": 28 }, "geometry": { "type": "Point", "coordinates": [ 8.6821, 50.1109 ] } },
{ "type": "Feature", "properties": { "latitude": 50.4547, "longitude": -104.6066, "location": "Regina", "year": 2005, "speech_count": 1 }, "geometry": { "type": "Point", "coordinates": [ -104.6066, 50.4547 ] } },
{ "type": "Feature", "properties": { "latitude": 50.8465, "longitude": 4.3517, "location": "Brussels", "year": 2005, "speech_count": 12 }, "geometry": { "type": "Point", "coordinates": [ 4.3517, 50.8465 ] } },
{ "type": "Feature", "properties": { "latitude": 51.0447, "longitude": -114.0719, "location": "Calgary", "year": 2005, "speech_count": 1 }, "geometry": { "type": "Point", "coordinates": [ -114.0719, 51.0447 ] } },
{ "type": "Feature", "properties": { "latitude": 51.1056, "longitude": 6.4225, "location": "Herten-Roermond", "year": 2005, "speech_count": 1 }, "geometry": { "type": "Point", "coordinates": [ 6.4225, 51.1056 ] } },
{ "type": "Feature", "properties": { "latitude": 51.2333, "longitude": -0.55, "location": "Guildford", "year": 2005, "speech_count": 1 }, "geometry": { "type": "Point", "coordinates": [ -0.55, 51.2333 ] } },
{ "type": "Feature", "properties": { "latitude": 51.5074, "longitude": -0.1278, "location": "London", "year": 2005, "speech_count": 16 }, "geometry": { "type": "Point", "coordinates": [ -0.1278, 51.5074 ] } },
{ "type": "Feature", "properties": { "latitude": 51.898, "longitude": -8.4701, "location": "Cork", "year": 2005, "speech_count": 1 }, "geometry": { "type": "Point", "coordinates": [ -8.4701, 51.898 ] } },
{ "type": "Feature", "properties": { "latitude": 52.0708, "longitude": 4.2999, "location": "The Hague", "year": 2005, "speech_count": 1 }, "geometry": { "type": "Point", "coordinates": [ 4.2999, 52.0708 ] } },
{ "type": "Feature", "properties": { "latitude": 52.2297, "longitude": 21.0117, "location": "Warsaw", "year": 2005, "speech_count": 1 }, "geometry": { "type": "Point", "coordinates": [ 21.0117, 52.2297 ] } },
{ "type": "Feature", "properties": { "latitude": 52.3667, "longitude": 4.8945, "location": "Amsterdam", "year": 2005, "speech_count": 1 }, "geometry": { "type": "Point", "coordinates": [ 4.8945, 52.3667 ] } },
{ "type": "Feature", "properties": { "latitude": 52.3702, "longitude": 4.8952, "location": "Amsterdam", "year": 2005, "speech_count": 2 }, "geometry": { "type": "Point", "coordinates": [ 4.8952, 52.3702 ] } },
{ "type": "Feature", "properties": { "latitude": 52.5166, "longitude": 13.3833, "location": "Berlin", "year": 2005, "speech_count": 1 }, "geometry": { "type": "Point", "coordinates": [ 13.3833, 52.5166 ] } },
{ "type": "Feature", "properties": { "latitude": 52.52, "longitude": 13.405, "location": "Berlin", "year": 2005, "speech_count": 5 }, "geometry": { "type": "Point", "coordinates": [ 13.405, 52.52 ] } },
{ "type": "Feature", "properties": { "latitude": 53.1188, "longitude": -6.2782, "location": "Leinster", "year": 2005, "speech_count": 1 }, "geometry": { "type": "Point", "coordinates": [ -6.2782, 53.1188 ] } },
{ "type": "Feature", "properties": { "latitude": 53.3498, "longitude": -6.2603, "location": "Dublin", "year": 2005, "speech_count": 3 }, "geometry": { "type": "Point", "coordinates": [ -6.2603, 53.3498 ] } },
{ "type": "Feature", "properties": { "latitude": 53.4084, "longitude": -2.9916, "location": "Liverpool", "year": 2005, "speech_count": 1 }, "geometry": { "type": "Point", "coordinates": [ -2.9916, 53.4084 ] } },
{ "type": "Feature", "properties": { "latitude": 53.4808, "longitude": -2.2426, "location": "Manchester", "year": 2005, "speech_count": 1 }, "geometry": { "type": "Point", "coordinates": [ -2.2426, 53.4808 ] } },
{ "type": "Feature", "properties": { "latitude": 55.5756, "longitude": 13.0007, "location": "Malm", "year": 2005, "speech_count": 1 }, "geometry": { "type": "Point", "coordinates": [ 13.0007, 55.5756 ] } },
{ "type": "Feature", "properties": { "latitude": 55.6761, "longitude": 12.5683, "location": "Copenhagen", "year": 2005, "speech_count": 4 }, "geometry": { "type": "Point", "coordinates": [ 12.5683, 55.6761 ] } },
{ "type": "Feature", "properties": { "latitude": 55.7558, "longitude": 37.6173, "location": "Moscow", "year": 2005, "speech_count": 1 }, "geometry": { "type": "Point", "coordinates": [ 37.6173, 55.7558 ] } },
{ "type": "Feature", "properties": { "latitude": 56.109, "longitude": -3.165, "location": "Kirkcaldy", "year": 2005, "speech_count": 1 }, "geometry": { "type": "Point", "coordinates": [ -3.165, 56.109 ] } },
{ "type": "Feature", "properties": { "latitude": 56.9465, "longitude": 24.1049, "location": "Riga", "year": 2005, "speech_count": 1 }, "geometry": { "type": "Point", "coordinates": [ 24.1049, 56.9465 ] } },
{ "type": "Feature", "properties": { "latitude": 58.4433, "longitude": 14.9075, "location": "Vadstena", "year": 2005, "speech_count": 1 }, "geometry": { "type": "Point", "coordinates": [ 14.9075, 58.4433 ] } },
{ "type": "Feature", "properties": { "latitude": 58.4699, "longitude": 8.7644, "location": "Arendal", "year": 2005, "speech_count": 1 }, "geometry": { "type": "Point", "coordinates": [ 8.7644, 58.4699 ] } },
{ "type": "Feature", "properties": { "latitude": 58.9699, "longitude": 5.7331, "location": "Stavanger", "year": 2005, "speech_count": 1 }, "geometry": { "type": "Point", "coordinates": [ 5.7331, 58.9699 ] } },
{ "type": "Feature", "properties": { "latitude": 59.1273, "longitude": 10.2386, "location": "Sanderstølen", "year": 2005, "speech_count": 1 }, "geometry": { "type": "Point", "coordinates": [ 10.2386, 59.1273 ] } },
{ "type": "Feature", "properties": { "latitude": 59.3293, "longitude": 18.0686, "location": "Stockholm", "year": 2005, "speech_count": 12 }, "geometry": { "type": "Point", "coordinates": [ 18.0686, 59.3293 ] } },
{ "type": "Feature", "properties": { "latitude": 59.3812, "longitude": 13.5065, "location": "Karlstad", "year": 2005, "speech_count": 1 }, "geometry": { "type": "Point", "coordinates": [ 13.5065, 59.3812 ] } },
{ "type": "Feature", "properties": { "latitude": 59.3812, "longitude": 13.5165, "location": "Karlstad", "year": 2005, "speech_count": 1 }, "geometry": { "type": "Point", "coordinates": [ 13.5165, 59.3812 ] } },
{ "type": "Feature", "properties": { "latitude": 59.7562, "longitude": 18.5612, "location": "Rimbo", "year": 2005, "speech_count": 1 }, "geometry": { "type": "Point", "coordinates": [ 18.5612, 59.7562 ] } },
{ "type": "Feature", "properties": { "latitude": 59.7667, "longitude": 18.6767, "location": "Norrtälje", "year": 2005, "speech_count": 1 }, "geometry": { "type": "Point", "coordinates": [ 18.6767, 59.7667 ] } },
{ "type": "Feature", "properties": { "latitude": 59.8586, "longitude": 17.6392, "location": "Uppsala", "year": 2005, "speech_count": 1 }, "geometry": { "type": "Point", "coordinates": [ 17.6392, 59.8586 ] } },
{ "type": "Feature", "properties": { "latitude": 59.8586, "longitude": 17.6438, "location": "Uppsala", "year": 2005, "speech_count": 1 }, "geometry": { "type": "Point", "coordinates": [ 17.6438, 59.8586 ] } },
{ "type": "Feature", "properties": { "latitude": 59.9138, "longitude": 10.7387, "location": "Oslo", "year": 2005, "speech_count": 1 }, "geometry": { "type": "Point", "coordinates": [ 10.7387, 59.9138 ] } },
{ "type": "Feature", "properties": { "latitude": 59.9138, "longitude": 10.7522, "location": "Oslo", "year": 2005, "speech_count": 2 }, "geometry": { "type": "Point", "coordinates": [ 10.7522, 59.9138 ] } },
{ "type": "Feature", "properties": { "latitude": 59.9139, "longitude": 10.7522, "location": "Oslo", "year": 2005, "speech_count": 4 }, "geometry": { "type": "Point", "coordinates": [ 10.7522, 59.9139 ] } },
{ "type": "Feature", "properties": { "latitude": 60.1699, "longitude": 24.9384, "location": "Helsinki", "year": 2005, "speech_count": 1 }, "geometry": { "type": "Point", "coordinates": [ 24.9384, 60.1699 ] } },
{ "type": "Feature", "properties": { "latitude": 60.1944, "longitude": 11.0783, "location": "Gardermoen", "year": 2005, "speech_count": 1 }, "geometry": { "type": "Point", "coordinates": [ 11.0783, 60.1944 ] } },
{ "type": "Feature", "properties": { "latitude": 60.3913, "longitude": 5.3221, "location": "Bergen", "year": 2005, "speech_count": 1 }, "geometry": { "type": "Point", "coordinates": [ 5.3221, 60.3913 ] } },
{ "type": "Feature", "properties": { "latitude": 60.4722, "longitude": 8.4689, "location": "Norway", "year": 2005, "speech_count": 1 }, "geometry": { "type": "Point", "coordinates": [ 8.4689, 60.4722 ] } },
{ "type": "Feature", "properties": { "latitude": 62.4787, "longitude": 6.1514, "location": "lesund", "year": 2005, "speech_count": 1 }, "geometry": { "type": "Point", "coordinates": [ 6.1514, 62.4787 ] } },
{ "type": "Feature", "properties": { "latitude": 63.4305, "longitude": 10.3951, "location": "Trondheim", "year": 2005, "speech_count": 2 }, "geometry": { "type": "Point", "coordinates": [ 10.3951, 63.4305 ] } },
{ "type": "Feature", "properties": { "latitude": 63.4445, "longitude": 10.2299, "location": "Bod", "year": 2005, "speech_count": 1 }, "geometry": { "type": "Point", "coordinates": [ 10.2299, 63.4445 ] } },
{ "type": "Feature", "properties": { "latitude": 64.1265, "longitude": -21.8962, "location": "Reykjavik", "year": 2005, "speech_count": 1 }, "geometry": { "type": "Point", "coordinates": [ -21.8962, 64.1265 ] } },
{ "type": "Feature", "properties": { "latitude": 64.1283, "longitude": -21.8964, "location": "Reykjavik", "year": 2005, "speech_count": 1 }, "geometry": { "type": "Point", "coordinates": [ -21.8964, 64.1283 ] } },
{ "type": "Feature", "properties": { "latitude": 70.7784, "longitude": 23.6238, "location": "Kapp", "year": 2005, "speech_count": 1 }, "geometry": { "type": "Point", "coordinates": [ 23.6238, 70.7784 ] } }
]
}
