{
"type": "FeatureCollection",
"name": "speeches_2011",
"crs": { "type": "name", "properties": { "name": "urn:ogc:def:crs:OGC:1.3:CRS84" } },
"features": [
{ "type": "Feature", "properties": { "latitude": -43.5327, "longitude": 172.6364, "location": "Christchurch", "year": 2011, "speech_count": 1 }, "geometry": { "type": "Point", "coordinates": [ 172.6364, -43.5327 ] } },
{ "type": "Feature", "properties": { "latitude": -43.5321, "longitude": 172.6362, "location": "Christ Church", "year": 2011, "speech_count": 1 }, "geometry": { "type": "Point", "coordinates": [ 172.6362, -43.5321 ] } },
{ "type": "Feature", "properties": { "latitude": -41.2865, "longitude": 174.7762, "location": "Wellington", "year": 2011, "speech_count": 1 }, "geometry": { "type": "Point", "coordinates": [ 174.7762, -41.2865 ] } },
{ "type": "Feature", "properties": { "latitude": -37.8136, "longitude": 144.9631, "location": "Melbourne", "year": 2011, "speech_count": 3 }, "geometry": { "type": "Point", "coordinates": [ 144.9631, -37.8136 ] } },
{ "type": "Feature", "properties": { "latitude": -37.6842, "longitude": 176.1655, "location": "Tauranga", "year": 2011, "speech_count": 1 }, "geometry": { "type": "Point", "coordinates": [ 176.1655, -37.6842 ] } },
{ "type": "Feature", "properties": { "latitude": -35.3075, "longitude": 149.1244, "location": "Canberra", "year": 2011, "speech_count": 1 }, "geometry": { "type": "Point", "coordinates": [ 149.1244, -35.3075 ] } },
{ "type": "Feature", "properties": { "latitude": -35.2809, "longitude": 149.13, "location": "Canberra", "year": 2011, "speech_count": 1 }, "geometry": { "type": "Point", "coordinates": [ 149.13, -35.2809 ] } },
{ "type": "Feature", "properties": { "latitude": -35.2809, "longitude": 149.1301, "location": "Canberra", "year": 2011, "speech_count": 1 }, "geometry": { "type": "Point", "coordinates": [ 149.1301, -35.2809 ] } },
{ "type": "Feature", "properties": { "latitude": -34.9285, "longitude": 138.5999, "location": "Adelaide", "year": 2011, "speech_count": 1 }, "geometry": { "type": "Point", "coordinates": [ 138.5999, -34.9285 ] } },
{ "type": "Feature", "properties": { "latitude": -34.9285, "longitude": 138.6007, "location": "Adelaide", "year": 2011, "speech_count": 1 }, "geometry": { "type": "Point", "coordinates": [ 138.6007, -34.9285 ] } },
{ "type": "Feature", "properties": { "latitude": -33.9249, "longitude": 18.4241, "location": "Cape Town", "year": 2011, "speech_count": 2 }, "geometry": { "type": "Point", "coordinates": [ 18.4241, -33.9249 ] } },
{ "type": "Feature", "properties": { "latitude": -33.8688, "longitude": 151.2093, "location": "Sydney", "year": 2011, "speech_count": 15 }, "geometry": { "type": "Point", "coordinates": [ 151.2093, -33.8688 ] } },
{ "type": "Feature", "properties": { "latitude": -33.8679, "longitude": 151.2073, "location": "Sidney", "year": 2011, "speech_count": 1 }, "geometry": { "type": "Point", "coordinates": [ 151.2073, -33.8679 ] } },
{ "type": "Feature", "properties": { "latitude": -33.8679, "longitude": 151.2073, "location": "Sydney", "year": 2011, "speech_count": 4 }, "geometry": { "type": "Point", "coordinates": [ 151.2073, -33.8679 ] } },
{ "type": "Feature", "properties": { "latitude": -33.8675, "longitude": 151.207, "location": "Sydney", "year": 2011, "speech_count": 2 }, "geometry": { "type": "Point", "coordinates": [ 151.207, -33.8675 ] } },
{ "type": "Feature", "properties": { "latitude": -33.4569, "longitude": -70.6483, "location": "Santiago", "year": 2011, "speech_count": 1 }, "geometry": { "type": "Point", "coordinates": [ -70.6483, -33.4569 ] } },
{ "type": "Feature", "properties": { "latitude": -33.4489, "longitude": -70.6693, "location": "Santiago", "year": 2011, "speech_count": 8 }, "geometry": { "type": "Point", "coordinates": [ -70.6693, -33.4489 ] } },
{ "type": "Feature", "properties": { "latitude": -31.9522, "longitude": 115.8614, "location": "Perth", "year": 2011, "speech_count": 1 }, "geometry": { "type": "Point", "coordinates": [ 115.8614, -31.9522 ] } },
{ "type": "Feature", "properties": { "latitude": -27.4708, "longitude": 153.0235, "location": "Brisbane", "year": 2011, "speech_count": 1 }, "geometry": { "type": "Point", "coordinates": [ 153.0235, -27.4708 ] } },
{ "type": "Feature", "properties": { "latitude": -26.2044, "longitude": 28.0456, "location": "Johannesburg", "year": 2011, "speech_count": 1 }, "geometry": { "type": "Point", "coordinates": [ 28.0456, -26.2044 ] } },
{ "type": "Feature", "properties": { "latitude": -26.2041, "longitude": 28.0473, "location": "Johannesburg", "year": 2011, "speech_count": 3 }, "geometry": { "type": "Point", "coordinates": [ 28.0473, -26.2041 ] } },
{ "type": "Feature", "properties": { "latitude": -25.8794, "longitude": 28.1974, "location": "Centurion", "year": 2011, "speech_count": 1 }, "geometry": { "type": "Point", "coordinates": [ 28.1974, -25.8794 ] } },
{ "type": "Feature", "properties": { "latitude": -25.74611, "longitude": 28.22927, "location": "Pretoria", "year": 2011, "speech_count": 1 }, "geometry": { "type": "Point", "coordinates": [ 28.22927, -25.74611 ] } },
{ "type": "Feature", "properties": { "latitude": -25.7461, "longitude": 28.1889, "location": "Pretoria", "year": 2011, "speech_count": 4 }, "geometry": { "type": "Point", "coordinates": [ 28.1889, -25.7461 ] } },
{ "type": "Feature", "properties": { "latitude": -24.6581, "longitude": 25.9122, "location": "Gaborone", "year": 2011, "speech_count": 1 }, "geometry": { "type": "Point", "coordinates": [ 25.9122, -24.6581 ] } },
{ "type": "Feature", "properties": { "latitude": -22.575, "longitude": 17.0833, "location": "Windhoek", "year": 2011, "speech_count": 1 }, "geometry": { "type": "Point", "coordinates": [ 17.0833, -22.575 ] } },
{ "type": "Feature", "properties": { "latitude": -22.5744, "longitude": 17.0836, "location": "Windhoek", "year": 2011, "speech_count": 1 }, "geometry": { "type": "Point", "coordinates": [ 17.0836, -22.5744 ] } },
{ "type": "Feature", "properties": { "latitude": -22.5634, "longitude": 17.0836, "location": "Windhoek", "year": 2011, "speech_count": 1 }, "geometry": { "type": "Point", "coordinates": [ 17.0836, -22.5634 ] } },
{ "type": "Feature", "properties": { "latitude": -20.8789, "longitude": 55.4489, "location": "Saint-Denis, Reunion", "year": 2011, "speech_count": 1 }, "geometry": { "type": "Point", "coordinates": [ 55.4489, -20.8789 ] } },
{ "type": "Feature", "properties": { "latitude": -20.2667, "longitude": 57.5333, "location": "Moka", "year": 2011, "speech_count": 1 }, "geometry": { "type": "Point", "coordinates": [ 57.5333, -20.2667 ] } },
{ "type": "Feature", "properties": { "latitude": -20.2333, "longitude": 57.4833, "location": "Balaclava", "year": 2011, "speech_count": 1 }, "geometry": { "type": "Point", "coordinates": [ 57.4833, -20.2333 ] } },
{ "type": "Feature", "properties": { "latitude": -20.2049, "longitude": 57.4825, "location": "Pailles", "year": 2011, "speech_count": 1 }, "geometry": { "type": "Point", "coordinates": [ 57.4825, -20.2049 ] } },
{ "type": "Feature", "properties": { "latitude": -20.2049, "longitude": 57.4882, "location": "Ebène", "year": 2011, "speech_count": 1 }, "geometry": { "type": "Point", "coordinates": [ 57.4882, -20.2049 ] } },
{ "type": "Feature", "properties": { "latitude": -20.2049, "longitude": 57.4938, "location": "Ebène", "year": 2011, "speech_count": 1 }, "geometry": { "type": "Point", "coordinates": [ 57.4938, -20.2049 ] } },
{ "type": "Feature", "properties": { "latitude": -20.1667, "longitude": 57.4833, "location": "Port Louis", "year": 2011, "speech_count": 1 }, "geometry": { "type": "Point", "coordinates": [ 57.4833, -20.1667 ] } },
{ "type": "Feature", "properties": { "latitude": -20.1654, "longitude": 57.4997, "location": "Port Louis", "year": 2011, "speech_count": 1 }, "geometry": { "type": "Point", "coordinates": [ 57.4997, -20.1654 ] } },
{ "type": "Feature", "properties": { "latitude": -20.1654, "longitude": 57.5, "location": "Port-Louis", "year": 2011, "speech_count": 1 }, "geometry": { "type": "Point", "coordinates": [ 57.5, -20.1654 ] } },
{ "type": "Feature", "properties": { "latitude": -20.1606, "longitude": 57.4986, "location": "Port Louis", "year": 2011, "speech_count": 1 }, "geometry": { "type": "Point", "coordinates": [ 57.4986, -20.1606 ] } },
{ "type": "Feature", "properties": { "latitude": -20.1605, "longitude": 57.4978, "location": "Port-Louis", "year": 2011, "speech_count": 1 }, "geometry": { "type": "Point", "coordinates": [ 57.4978, -20.1605 ] } },
{ "type": "Feature", "properties": { "latitude": -20.1605, "longitude": 57.5014, "location": "Port Louis", "year": 2011, "speech_count": 2 }, "geometry": { "type": "Point", "coordinates": [ 57.5014, -20.1605 ] } },
{ "type": "Feature", "properties": { "latitude": -20.1603, "longitude": 57.4942, "location": "Port Louis", "year": 2011, "speech_count": 1 }, "geometry": { "type": "Point", "coordinates": [ 57.4942, -20.1603 ] } },
{ "type": "Feature", "properties": { "latitude": -18.1425, "longitude": 178.4419, "location": "Suva", "year": 2011, "speech_count": 1 }, "geometry": { "type": "Point", "coordinates": [ 178.4419, -18.1425 ] } },
{ "type": "Feature", "properties": { "latitude": -18.1416, "longitude": 178.4419, "location": "Suva", "year": 2011, "speech_count": 5 }, "geometry": { "type": "Point", "coordinates": [ 178.4419, -18.1416 ] } },
{ "type": "Feature", "properties": { "latitude": -18.1336, "longitude": 178.4433, "location": "Suva", "year": 2011, "speech_count": 1 }, "geometry": { "type": "Point", "coordinates": [ 178.4433, -18.1336 ] } },
{ "type": "Feature", "properties": { "latitude": -18.1333, "longitude": 178.4167, "location": "Suva", "year": 2011, "speech_count": 1 }, "geometry": { "type": "Point", "coordinates": [ 178.4167, -18.1333 ] } },
{ "type": "Feature", "properties": { "latitude": -18.1319, "longitude": 178.436, "location": "Suva", "year": 2011, "speech_count": 1 }, "geometry": { "type": "Point", "coordinates": [ 178.436, -18.1319 ] } },
{ "type": "Feature", "properties": { "latitude": -17.7639, "longitude": 177.4356, "location": "Nadi", "year": 2011, "speech_count": 1 }, "geometry": { "type": "Point", "coordinates": [ 177.4356, -17.7639 ] } },
{ "type": "Feature", "properties": { "latitude": -17.6195, "longitude": 177.4368, "location": "Lautoka", "year": 2011, "speech_count": 1 }, "geometry": { "type": "Point", "coordinates": [ 177.4368, -17.6195 ] } },
{ "type": "Feature", "properties": { "latitude": -15.4169, "longitude": 28.2861, "location": "Lusaka", "year": 2011, "speech_count": 1 }, "geometry": { "type": "Point", "coordinates": [ 28.2861, -15.4169 ] } },
{ "type": "Feature", "properties": { "latitude": -15.4167, "longitude": 28.2833, "location": "Lusaka", "year": 2011, "speech_count": 13 }, "geometry": { "type": "Point", "coordinates": [ 28.2833, -15.4167 ] } },
{ "type": "Feature", "properties": { "latitude": -13.9833, "longitude": 33.7833, "location": "Lilongwe", "year": 2011, "speech_count": 1 }, "geometry": { "type": "Point", "coordinates": [ 33.7833, -13.9833 ] } },
{ "type": "Feature", "properties": { "latitude": -12.9667, "longitude": 28.65, "location": "Ndola", "year": 2011, "speech_count": 1 }, "geometry": { "type": "Point", "coordinates": [ 28.65, -12.9667 ] } },
{ "type": "Feature", "properties": { "latitude": -12.8167, "longitude": 28.2167, "location": "Kitwe", "year": 2011, "speech_count": 1 }, "geometry": { "type": "Point", "coordinates": [ 28.2167, -12.8167 ] } },
{ "type": "Feature", "properties": { "latitude": -12.4611, "longitude": 130.8418, "location": "Darwin", "year": 2011, "speech_count": 1 }, "geometry": { "type": "Point", "coordinates": [ 130.8418, -12.4611 ] } },
{ "type": "Feature", "properties": { "latitude": -9.4453, "longitude": 147.1804, "location": "Port Moresby", "year": 2011, "speech_count": 1 }, "geometry": { "type": "Point", "coordinates": [ 147.1804, -9.4453 ] } },
{ "type": "Feature", "properties": { "latitude": -9.4439, "longitude": 147.1764, "location": "Port Moresby", "year": 2011, "speech_count": 1 }, "geometry": { "type": "Point", "coordinates": [ 147.1764, -9.4439 ] } },
{ "type": "Feature", "properties": { "latitude": -9.4439, "longitude": 147.1961, "location": "Port Moresby", "year": 2011, "speech_count": 1 }, "geometry": { "type": "Point", "coordinates": [ 147.1961, -9.4439 ] } },
{ "type": "Feature", "properties": { "latitude": -9.44389, "longitude": 147.18001, "location": "Port Moresby", "year": 2011, "speech_count": 1 }, "geometry": { "type": "Point", "coordinates": [ 147.18001, -9.44389 ] } },
{ "type": "Feature", "properties": { "latitude": -9.4395, "longitude": 159.927, "location": "Honiara", "year": 2011, "speech_count": 2 }, "geometry": { "type": "Point", "coordinates": [ 159.927, -9.4395 ] } },
{ "type": "Feature", "properties": { "latitude": -9.4333, "longitude": 159.95, "location": "Honiara", "year": 2011, "speech_count": 1 }, "geometry": { "type": "Point", "coordinates": [ 159.95, -9.4333 ] } },
{ "type": "Feature", "properties": { "latitude": -6.8236, "longitude": 39.2706, "location": "Dar es Salaam", "year": 2011, "speech_count": 1 }, "geometry": { "type": "Point", "coordinates": [ 39.2706, -6.8236 ] } },
{ "type": "Feature", "properties": { "latitude": -6.2146, "longitude": 106.8451, "location": "Jakarta", "year": 2011, "speech_count": 1 }, "geometry": { "type": "Point", "coordinates": [ 106.8451, -6.2146 ] } },
{ "type": "Feature", "properties": { "latitude": -6.1751, "longitude": 106.865, "location": "Jakarta", "year": 2011, "speech_count": 2 }, "geometry": { "type": "Point", "coordinates": [ 106.865, -6.1751 ] } },
{ "type": "Feature", "properties": { "latitude": -4.0583, "longitude": 39.6681, "location": "Mombasa", "year": 2011, "speech_count": 1 }, "geometry": { "type": "Point", "coordinates": [ 39.6681, -4.0583 ] } },
{ "type": "Feature", "properties": { "latitude": -1.2921, "longitude": 36.8219, "location": "Nairobi", "year": 2011, "speech_count": 13 }, "geometry": { "type": "Point", "coordinates": [ 36.8219, -1.2921 ] } },
{ "type": "Feature", "properties": { "latitude": -1.2833, "longitude": 36.8167, "location": "Nairobi", "year": 2011, "speech_count": 1 }, "geometry": { "type": "Point", "coordinates": [ 36.8167, -1.2833 ] } },
{ "type": "Feature", "properties": { "latitude": -0.4187, "longitude": 33.199, "location": "Jinja", "year": 2011, "speech_count": 1 }, "geometry": { "type": "Point", "coordinates": [ 33.199, -0.4187 ] } },
{ "type": "Feature", "properties": { "latitude": -0.0236, "longitude": 37.6667, "location": "Meru", "year": 2011, "speech_count": 1 }, "geometry": { "type": "Point", "coordinates": [ 37.6667, -0.0236 ] } },
{ "type": "Feature", "properties": { "latitude": 0.3156, "longitude": 32.5679, "location": "Kampala", "year": 2011, "speech_count": 2 }, "geometry": { "type": "Point", "coordinates": [ 32.5679, 0.3156 ] } },
{ "type": "Feature", "properties": { "latitude": 0.3156, "longitude": 32.5699, "location": "Kampala", "year": 2011, "speech_count": 2 }, "geometry": { "type": "Point", "coordinates": [ 32.5699, 0.3156 ] } },
{ "type": "Feature", "properties": { "latitude": 0.3156, "longitude": 32.5825, "location": "Kampala", "year": 2011, "speech_count": 1 }, "geometry": { "type": "Point", "coordinates": [ 32.5825, 0.3156 ] } },
{ "type": "Feature", "properties": { "latitude": 0.3157, "longitude": 32.5665, "location": "Kampala", "year": 2011, "speech_count": 1 }, "geometry": { "type": "Point", "coordinates": [ 32.5665, 0.3157 ] } },
{ "type": "Feature", "properties": { "latitude": 0.3157, "longitude": 32.5699, "location": "Kampala", "year": 2011, "speech_count": 1 }, "geometry": { "type": "Point", "coordinates": [ 32.5699, 0.3157 ] } },
{ "type": "Feature", "properties": { "latitude": 0.3157, "longitude": 32.5775, "location": "Kampala", "year": 2011, "speech_count": 1 }, "geometry": { "type": "Point", "coordinates": [ 32.5775, 0.3157 ] } },
{ "type": "Feature", "properties": { "latitude": 1.2833, "longitude": 103.8331, "location": "Singapore", "year": 2011, "speech_count": 2 }, "geometry": { "type": "Point", "coordinates": [ 103.8331, 1.2833 ] } },
{ "type": "Feature", "properties": { "latitude": 1.2833, "longitude": 103.8333, "location": "Singapore", "year": 2011, "speech_count": 6 }, "geometry": { "type": "Point", "coordinates": [ 103.8333, 1.2833 ] } },
{ "type": "Feature", "properties": { "latitude": 1.2894, "longitude": 103.85, "location": "Singapore", "year": 2011, "speech_count": 7 }, "geometry": { "type": "Point", "coordinates": [ 103.85, 1.2894 ] } },
{ "type": "Feature", "properties": { "latitude": 1.2902, "longitude": 103.8519, "location": "Singapore", "year": 2011, "speech_count": 1 }, "geometry": { "type": "Point", "coordinates": [ 103.8519, 1.2902 ] } },
{ "type": "Feature", "properties": { "latitude": 1.29027, "longitude": 103.85195, "location": "Singapore", "year": 2011, "speech_count": 1 }, "geometry": { "type": "Point", "coordinates": [ 103.85195, 1.29027 ] } },
{ "type": "Feature", "properties": { "latitude": 1.29027, "longitude": 103.851959, "location": "Singapore", "year": 2011, "speech_count": 1 }, "geometry": { "type": "Point", "coordinates": [ 103.851959, 1.29027 ] } },
{ "type": "Feature", "properties": { "latitude": 1.3521, "longitude": 103.8198, "location": "Singapore", "year": 2011, "speech_count": 3 }, "geometry": { "type": "Point", "coordinates": [ 103.8198, 1.3521 ] } },
{ "type": "Feature", "properties": { "latitude": 2.9283, "longitude": 101.6864, "location": "Putrajaya", "year": 2011, "speech_count": 1 }, "geometry": { "type": "Point", "coordinates": [ 101.6864, 2.9283 ] } },
{ "type": "Feature", "properties": { "latitude": 3.139, "longitude": 101.6869, "location": "Kuala Lumpur", "year": 2011, "speech_count": 7 }, "geometry": { "type": "Point", "coordinates": [ 101.6869, 3.139 ] } },
{ "type": "Feature", "properties": { "latitude": 3.1408, "longitude": 101.6865, "location": "Kuala Lumpur", "year": 2011, "speech_count": 1 }, "geometry": { "type": "Point", "coordinates": [ 101.6865, 3.1408 ] } },
{ "type": "Feature", "properties": { "latitude": 3.1408, "longitude": 101.6868, "location": "Kuala Lumpur", "year": 2011, "speech_count": 1 }, "geometry": { "type": "Point", "coordinates": [ 101.6868, 3.1408 ] } },
{ "type": "Feature", "properties": { "latitude": 3.1408, "longitude": 101.6869, "location": "Kuala Lumpur", "year": 2011, "speech_count": 5 }, "geometry": { "type": "Point", "coordinates": [ 101.6869, 3.1408 ] } },
{ "type": "Feature", "properties": { "latitude": 3.1408, "longitude": 101.6931, "location": "Kuala Lumpur", "year": 2011, "speech_count": 3 }, "geometry": { "type": "Point", "coordinates": [ 101.6931, 3.1408 ] } },
{ "type": "Feature", "properties": { "latitude": 3.1502, "longitude": 101.7119, "location": "Kuala Lumpur", "year": 2011, "speech_count": 1 }, "geometry": { "type": "Point", "coordinates": [ 101.7119, 3.1502 ] } },
{ "type": "Feature", "properties": { "latitude": 4.8522, "longitude": 31.5825, "location": "Juba", "year": 2011, "speech_count": 1 }, "geometry": { "type": "Point", "coordinates": [ 31.5825, 4.8522 ] } },
{ "type": "Feature", "properties": { "latitude": 6.4531, "longitude": 3.3958, "location": "Lagos", "year": 2011, "speech_count": 1 }, "geometry": { "type": "Point", "coordinates": [ 3.3958, 6.4531 ] } },
{ "type": "Feature", "properties": { "latitude": 6.9319, "longitude": 79.8478, "location": "Colombo", "year": 2011, "speech_count": 1 }, "geometry": { "type": "Point", "coordinates": [ 79.8478, 6.9319 ] } },
{ "type": "Feature", "properties": { "latitude": 8.4667, "longitude": -13.2333, "location": "Freetown", "year": 2011, "speech_count": 1 }, "geometry": { "type": "Point", "coordinates": [ -13.2333, 8.4667 ] } },
{ "type": "Feature", "properties": { "latitude": 9.5784, "longitude": 76.4689, "location": "Kumarakom, Kerala", "year": 2011, "speech_count": 1 }, "geometry": { "type": "Point", "coordinates": [ 76.4689, 9.5784 ] } },
{ "type": "Feature", "properties": { "latitude": 9.5833, "longitude": 76.5167, "location": "Kumarakom, Kerala", "year": 2011, "speech_count": 1 }, "geometry": { "type": "Point", "coordinates": [ 76.5167, 9.5833 ] } },
{ "type": "Feature", "properties": { "latitude": 9.5856, "longitude": 76.3392, "location": "Kumarakom, Kerala", "year": 2011, "speech_count": 1 }, "geometry": { "type": "Point", "coordinates": [ 76.3392, 9.5856 ] } },
{ "type": "Feature", "properties": { "latitude": 9.9312, "longitude": 76.2673, "location": "Kochi", "year": 2011, "speech_count": 2 }, "geometry": { "type": "Point", "coordinates": [ 76.2673, 9.9312 ] } },
{ "type": "Feature", "properties": { "latitude": 10.527, "longitude": 76.2173, "location": "Thrissur", "year": 2011, "speech_count": 1 }, "geometry": { "type": "Point", "coordinates": [ 76.2173, 10.527 ] } },
{ "type": "Feature", "properties": { "latitude": 10.6494, "longitude": -61.4789, "location": "Chaguanas", "year": 2011, "speech_count": 1 }, "geometry": { "type": "Point", "coordinates": [ -61.4789, 10.6494 ] } },
{ "type": "Feature", "properties": { "latitude": 10.6918, "longitude": -61.5178, "location": "Port-of-Spain", "year": 2011, "speech_count": 1 }, "geometry": { "type": "Point", "coordinates": [ -61.5178, 10.6918 ] } },
{ "type": "Feature", "properties": { "latitude": 10.6918, "longitude": -61.2225, "location": "Port-of-Spain", "year": 2011, "speech_count": 4 }, "geometry": { "type": "Point", "coordinates": [ -61.2225, 10.6918 ] } },
{ "type": "Feature", "properties": { "latitude": 10.9785, "longitude": 79.3916, "location": "Kumbakonam", "year": 2011, "speech_count": 1 }, "geometry": { "type": "Point", "coordinates": [ 79.3916, 10.9785 ] } },
{ "type": "Feature", "properties": { "latitude": 11.0168, "longitude": 76.9558, "location": "Coimbatore", "year": 2011, "speech_count": 1 }, "geometry": { "type": "Point", "coordinates": [ 76.9558, 11.0168 ] } },
{ "type": "Feature", "properties": { "latitude": 11.6667, "longitude": 92.75, "location": "Port Blair", "year": 2011, "speech_count": 1 }, "geometry": { "type": "Point", "coordinates": [ 92.75, 11.6667 ] } },
{ "type": "Feature", "properties": { "latitude": 12.1076, "longitude": -68.9307, "location": "Willemstad", "year": 2011, "speech_count": 1 }, "geometry": { "type": "Point", "coordinates": [ -68.9307, 12.1076 ] } },
{ "type": "Feature", "properties": { "latitude": 12.1078, "longitude": -68.9305, "location": "Willemstad", "year": 2011, "speech_count": 1 }, "geometry": { "type": "Point", "coordinates": [ -68.9305, 12.1078 ] } },
{ "type": "Feature", "properties": { "latitude": 12.1083, "longitude": -68.9333, "location": "Willemstad", "year": 2011, "speech_count": 1 }, "geometry": { "type": "Point", "coordinates": [ -68.9333, 12.1083 ] } },
{ "type": "Feature", "properties": { "latitude": 12.9716, "longitude": 77.5946, "location": "Bangalore", "year": 2011, "speech_count": 1 }, "geometry": { "type": "Point", "coordinates": [ 77.5946, 12.9716 ] } },
{ "type": "Feature", "properties": { "latitude": 13.0827, "longitude": 80.2707, "location": "Chennai", "year": 2011, "speech_count": 4 }, "geometry": { "type": "Point", "coordinates": [ 80.2707, 13.0827 ] } },
{ "type": "Feature", "properties": { "latitude": 13.0931, "longitude": -59.6139, "location": "Bridgetown", "year": 2011, "speech_count": 2 }, "geometry": { "type": "Point", "coordinates": [ -59.6139, 13.0931 ] } },
{ "type": "Feature", "properties": { "latitude": 13.0931, "longitude": -59.6132, "location": "Bridgetown", "year": 2011, "speech_count": 1 }, "geometry": { "type": "Point", "coordinates": [ -59.6132, 13.0931 ] } },
{ "type": "Feature", "properties": { "latitude": 13.0935, "longitude": -59.6143, "location": "Bridgetown", "year": 2011, "speech_count": 1 }, "geometry": { "type": "Point", "coordinates": [ -59.6143, 13.0935 ] } },
{ "type": "Feature", "properties": { "latitude": 13.0938, "longitude": -59.6139, "location": "Bridgetown", "year": 2011, "speech_count": 1 }, "geometry": { "type": "Point", "coordinates": [ -59.6139, 13.0938 ] } },
{ "type": "Feature", "properties": { "latitude": 13.0938, "longitude": -59.6125, "location": "Bridgetown", "year": 2011, "speech_count": 1 }, "geometry": { "type": "Point", "coordinates": [ -59.6125, 13.0938 ] } },
{ "type": "Feature", "properties": { "latitude": 13.1036, "longitude": -59.6181, "location": "Bridgetown", "year": 2011, "speech_count": 1 }, "geometry": { "type": "Point", "coordinates": [ -59.6181, 13.1036 ] } },
{ "type": "Feature", "properties": { "latitude": 13.1339, "longitude": -61.2203, "location": "Kingstown", "year": 2011, "speech_count": 1 }, "geometry": { "type": "Point", "coordinates": [ -61.2203, 13.1339 ] } },
{ "type": "Feature", "properties": { "latitude": 13.7563, "longitude": 100.5018, "location": "Bangkok", "year": 2011, "speech_count": 8 }, "geometry": { "type": "Point", "coordinates": [ 100.5018, 13.7563 ] } },
{ "type": "Feature", "properties": { "latitude": 15.2993, "longitude": 73.9167, "location": "Goa", "year": 2011, "speech_count": 1 }, "geometry": { "type": "Point", "coordinates": [ 73.9167, 15.2993 ] } },
{ "type": "Feature", "properties": { "latitude": 17.3578, "longitude": -62.7829, "location": "St Kitts", "year": 2011, "speech_count": 1 }, "geometry": { "type": "Point", "coordinates": [ -62.7829, 17.3578 ] } },
{ "type": "Feature", "properties": { "latitude": 17.385, "longitude": 78.4867, "location": "Hyderabad", "year": 2011, "speech_count": 3 }, "geometry": { "type": "Point", "coordinates": [ 78.4867, 17.385 ] } },
{ "type": "Feature", "properties": { "latitude": 17.9229, "longitude": -87.9519, "location": "San Pedro Town", "year": 2011, "speech_count": 1 }, "geometry": { "type": "Point", "coordinates": [ -87.9519, 17.9229 ] } },
{ "type": "Feature", "properties": { "latitude": 18.0104, "longitude": -76.7933, "location": "Kingston", "year": 2011, "speech_count": 1 }, "geometry": { "type": "Point", "coordinates": [ -76.7933, 18.0104 ] } },
{ "type": "Feature", "properties": { "latitude": 18.0169, "longitude": -76.8019, "location": "Kingston", "year": 2011, "speech_count": 1 }, "geometry": { "type": "Point", "coordinates": [ -76.8019, 18.0169 ] } },
{ "type": "Feature", "properties": { "latitude": 18.0189, "longitude": -76.8119, "location": "Kingston", "year": 2011, "speech_count": 1 }, "geometry": { "type": "Point", "coordinates": [ -76.8119, 18.0189 ] } },
{ "type": "Feature", "properties": { "latitude": 18.0189, "longitude": -76.8081, "location": "Kingston", "year": 2011, "speech_count": 1 }, "geometry": { "type": "Point", "coordinates": [ -76.8081, 18.0189 ] } },
{ "type": "Feature", "properties": { "latitude": 18.4663, "longitude": -66.1057, "location": "San Juan", "year": 2011, "speech_count": 1 }, "geometry": { "type": "Point", "coordinates": [ -66.1057, 18.4663 ] } },
{ "type": "Feature", "properties": { "latitude": 18.4934, "longitude": -77.9005, "location": "Montego Bay", "year": 2011, "speech_count": 1 }, "geometry": { "type": "Point", "coordinates": [ -77.9005, 18.4934 ] } },
{ "type": "Feature", "properties": { "latitude": 18.5204, "longitude": 73.8567, "location": "Pune", "year": 2011, "speech_count": 2 }, "geometry": { "type": "Point", "coordinates": [ 73.8567, 18.5204 ] } },
{ "type": "Feature", "properties": { "latitude": 19.0759, "longitude": 72.8777, "location": "Bombay", "year": 2011, "speech_count": 2 }, "geometry": { "type": "Point", "coordinates": [ 72.8777, 19.0759 ] } },
{ "type": "Feature", "properties": { "latitude": 19.0759837, "longitude": 72.8776559, "location": "Bombay", "year": 2011, "speech_count": 5 }, "geometry": { "type": "Point", "coordinates": [ 72.8776559, 19.0759837 ] } },
{ "type": "Feature", "properties": { "latitude": 19.076, "longitude": 72.8777, "location": "Bombay", "year": 2011, "speech_count": 21 }, "geometry": { "type": "Point", "coordinates": [ 72.8777, 19.076 ] } },
{ "type": "Feature", "properties": { "latitude": 19.4326, "longitude": -99.1332, "location": "Mexico City", "year": 2011, "speech_count": 2 }, "geometry": { "type": "Point", "coordinates": [ -99.1332, 19.4326 ] } },
{ "type": "Feature", "properties": { "latitude": 20.2961, "longitude": 85.8245, "location": "Bhubaneswar", "year": 2011, "speech_count": 1 }, "geometry": { "type": "Point", "coordinates": [ 85.8245, 20.2961 ] } },
{ "type": "Feature", "properties": { "latitude": 21.0278, "longitude": 105.8342, "location": "Hanoi", "year": 2011, "speech_count": 1 }, "geometry": { "type": "Point", "coordinates": [ 105.8342, 21.0278 ] } },
{ "type": "Feature", "properties": { "latitude": 21.2514, "longitude": 81.6296, "location": "Raipur", "year": 2011, "speech_count": 1 }, "geometry": { "type": "Point", "coordinates": [ 81.6296, 21.2514 ] } },
{ "type": "Feature", "properties": { "latitude": 21.4677, "longitude": 83.9686, "location": "Sambalpur", "year": 2011, "speech_count": 1 }, "geometry": { "type": "Point", "coordinates": [ 83.9686, 21.4677 ] } },
{ "type": "Feature", "properties": { "latitude": 22.1987, "longitude": 113.5439, "location": "Macau", "year": 2011, "speech_count": 3 }, "geometry": { "type": "Point", "coordinates": [ 113.5439, 22.1987 ] } },
{ "type": "Feature", "properties": { "latitude": 22.3027, "longitude": 114.1777, "location": "Hong Kong", "year": 2011, "speech_count": 2 }, "geometry": { "type": "Point", "coordinates": [ 114.1777, 22.3027 ] } },
{ "type": "Feature", "properties": { "latitude": 22.3039, "longitude": 87.3186, "location": "Kharagpur", "year": 2011, "speech_count": 1 }, "geometry": { "type": "Point", "coordinates": [ 87.3186, 22.3039 ] } },
{ "type": "Feature", "properties": { "latitude": 22.3193, "longitude": 114.1694, "location": "Hong Kong", "year": 2011, "speech_count": 3 }, "geometry": { "type": "Point", "coordinates": [ 114.1694, 22.3193 ] } },
{ "type": "Feature", "properties": { "latitude": 22.3964, "longitude": 114.1095, "location": "Hong Kong", "year": 2011, "speech_count": 2 }, "geometry": { "type": "Point", "coordinates": [ 114.1095, 22.3964 ] } },
{ "type": "Feature", "properties": { "latitude": 22.5726, "longitude": 88.3639, "location": "Calcutta", "year": 2011, "speech_count": 1 }, "geometry": { "type": "Point", "coordinates": [ 88.3639, 22.5726 ] } },
{ "type": "Feature", "properties": { "latitude": 23.0225, "longitude": 72.5714, "location": "Ahmedabad", "year": 2011, "speech_count": 1 }, "geometry": { "type": "Point", "coordinates": [ 72.5714, 23.0225 ] } },
{ "type": "Feature", "properties": { "latitude": 23.6102, "longitude": 58.5375, "location": "Muscat", "year": 2011, "speech_count": 1 }, "geometry": { "type": "Point", "coordinates": [ 58.5375, 23.6102 ] } },
{ "type": "Feature", "properties": { "latitude": 24.5798, "longitude": 73.6968, "location": "Udaipur", "year": 2011, "speech_count": 1 }, "geometry": { "type": "Point", "coordinates": [ 73.6968, 24.5798 ] } },
{ "type": "Feature", "properties": { "latitude": 24.6877, "longitude": 46.7211, "location": "Riyadh", "year": 2011, "speech_count": 2 }, "geometry": { "type": "Point", "coordinates": [ 46.7211, 24.6877 ] } },
{ "type": "Feature", "properties": { "latitude": 24.6877, "longitude": 46.7219, "location": "Riyadh", "year": 2011, "speech_count": 1 }, "geometry": { "type": "Point", "coordinates": [ 46.7219, 24.6877 ] } },
{ "type": "Feature", "properties": { "latitude": 24.7136, "longitude": 46.6753, "location": "Riyadh", "year": 2011, "speech_count": 1 }, "geometry": { "type": "Point", "coordinates": [ 46.6753, 24.7136 ] } },
{ "type": "Feature", "properties": { "latitude": 24.7743, "longitude": 46.6985, "location": "Riyadh", "year": 2011, "speech_count": 1 }, "geometry": { "type": "Point", "coordinates": [ 46.6985, 24.7743 ] } },
{ "type": "Feature", "properties": { "latitude": 24.8607, "longitude": 67.0011, "location": "Karachi", "year": 2011, "speech_count": 2 }, "geometry": { "type": "Point", "coordinates": [ 67.0011, 24.8607 ] } },
{ "type": "Feature", "properties": { "latitude": 24.8607, "longitude": 67.0099, "location": "Karachi", "year": 2011, "speech_count": 1 }, "geometry": { "type": "Point", "coordinates": [ 67.0099, 24.8607 ] } },
{ "type": "Feature", "properties": { "latitude": 24.8615, "longitude": 67.0099, "location": "Karachi", "year": 2011, "speech_count": 1 }, "geometry": { "type": "Point", "coordinates": [ 67.0099, 24.8615 ] } },
{ "type": "Feature", "properties": { "latitude": 25.4426, "longitude": 81.8406, "location": "Allahabad", "year": 2011, "speech_count": 1 }, "geometry": { "type": "Point", "coordinates": [ 81.8406, 25.4426 ] } },
{ "type": "Feature", "properties": { "latitude": 25.6867, "longitude": -100.3167, "location": "Monterrey, NL, Mexico", "year": 2011, "speech_count": 1 }, "geometry": { "type": "Point", "coordinates": [ -100.3167, 25.6867 ] } },
{ "type": "Feature", "properties": { "latitude": 26.1584, "longitude": 91.7392, "location": "Guwahati", "year": 2011, "speech_count": 1 }, "geometry": { "type": "Point", "coordinates": [ 91.7392, 26.1584 ] } },
{ "type": "Feature", "properties": { "latitude": 26.1964, "longitude": 91.7652, "location": "Guwahati", "year": 2011, "speech_count": 1 }, "geometry": { "type": "Point", "coordinates": [ 91.7652, 26.1964 ] } },
{ "type": "Feature", "properties": { "latitude": 26.2124, "longitude": 127.6809, "location": "Okinawa", "year": 2011, "speech_count": 1 }, "geometry": { "type": "Point", "coordinates": [ 127.6809, 26.2124 ] } },
{ "type": "Feature", "properties": { "latitude": 26.2286, "longitude": 50.5847, "location": "Manama", "year": 2011, "speech_count": 2 }, "geometry": { "type": "Point", "coordinates": [ 50.5847, 26.2286 ] } },
{ "type": "Feature", "properties": { "latitude": 26.2286, "longitude": 50.5891, "location": "Manama", "year": 2011, "speech_count": 1 }, "geometry": { "type": "Point", "coordinates": [ 50.5891, 26.2286 ] } },
{ "type": "Feature", "properties": { "latitude": 26.2286, "longitude": 50.5892, "location": "Manama", "year": 2011, "speech_count": 1 }, "geometry": { "type": "Point", "coordinates": [ 50.5892, 26.2286 ] } },
{ "type": "Feature", "properties": { "latitude": 26.2388, "longitude": 73.0236, "location": "Jodhpur", "year": 2011, "speech_count": 1 }, "geometry": { "type": "Point", "coordinates": [ 73.0236, 26.2388 ] } },
{ "type": "Feature", "properties": { "latitude": 26.2867, "longitude": 73.0304, "location": "Jodhpur", "year": 2011, "speech_count": 1 }, "geometry": { "type": "Point", "coordinates": [ 73.0304, 26.2867 ] } },
{ "type": "Feature", "properties": { "latitude": 26.8467, "longitude": 80.9462, "location": "Lucknow", "year": 2011, "speech_count": 1 }, "geometry": { "type": "Point", "coordinates": [ 80.9462, 26.8467 ] } },
{ "type": "Feature", "properties": { "latitude": 27.4416, "longitude": 89.6406, "location": "Thimpu", "year": 2011, "speech_count": 1 }, "geometry": { "type": "Point", "coordinates": [ 89.6406, 27.4416 ] } },
{ "type": "Feature", "properties": { "latitude": 27.4833, "longitude": 89.6333, "location": "Thimphu", "year": 2011, "speech_count": 1 }, "geometry": { "type": "Point", "coordinates": [ 89.6333, 27.4833 ] } },
{ "type": "Feature", "properties": { "latitude": 28.45, "longitude": 77.55, "location": "Greater Noida", "year": 2011, "speech_count": 1 }, "geometry": { "type": "Point", "coordinates": [ 77.55, 28.45 ] } },
{ "type": "Feature", "properties": { "latitude": 28.6139, "longitude": 77.2089, "location": "Delhi", "year": 2011, "speech_count": 3 }, "geometry": { "type": "Point", "coordinates": [ 77.2089, 28.6139 ] } },
{ "type": "Feature", "properties": { "latitude": 29.898, "longitude": -81.3128, "location": "St. Augustine", "year": 2011, "speech_count": 1 }, "geometry": { "type": "Point", "coordinates": [ -81.3128, 29.898 ] } },
{ "type": "Feature", "properties": { "latitude": 30.7333, "longitude": 76.7794, "location": "Chandigarh", "year": 2011, "speech_count": 1 }, "geometry": { "type": "Point", "coordinates": [ 76.7794, 30.7333 ] } },
{ "type": "Feature", "properties": { "latitude": 31.202, "longitude": 121.509, "location": "Pudong, Shanghai", "year": 2011, "speech_count": 1 }, "geometry": { "type": "Point", "coordinates": [ 121.509, 31.202 ] } },
{ "type": "Feature", "properties": { "latitude": 31.7683, "longitude": 35.2137, "location": "Jerusalem", "year": 2011, "speech_count": 3 }, "geometry": { "type": "Point", "coordinates": [ 35.2137, 31.7683 ] } },
{ "type": "Feature", "properties": { "latitude": 31.8538, "longitude": -106.4657, "location": "Fort Bliss", "year": 2011, "speech_count": 1 }, "geometry": { "type": "Point", "coordinates": [ -106.4657, 31.8538 ] } },
{ "type": "Feature", "properties": { "latitude": 32.7157, "longitude": -117.1611, "location": "San Diego", "year": 2011, "speech_count": 1 }, "geometry": { "type": "Point", "coordinates": [ -117.1611, 32.7157 ] } },
{ "type": "Feature", "properties": { "latitude": 32.7456, "longitude": 129.8644, "location": "Nagasaki", "year": 2011, "speech_count": 1 }, "geometry": { "type": "Point", "coordinates": [ 129.8644, 32.7456 ] } },
{ "type": "Feature", "properties": { "latitude": 32.7767, "longitude": -96.797, "location": "Dallas", "year": 2011, "speech_count": 4 }, "geometry": { "type": "Point", "coordinates": [ -96.797, 32.7767 ] } },
{ "type": "Feature", "properties": { "latitude": 32.7936, "longitude": 130.7025, "location": "Kumamoto", "year": 2011, "speech_count": 1 }, "geometry": { "type": "Point", "coordinates": [ 130.7025, 32.7936 ] } },
{ "type": "Feature", "properties": { "latitude": 33.2381, "longitude": 131.6129, "location": "Oita", "year": 2011, "speech_count": 1 }, "geometry": { "type": "Point", "coordinates": [ 131.6129, 33.2381 ] } },
{ "type": "Feature", "properties": { "latitude": 33.2494, "longitude": 130.2989, "location": "Saga", "year": 2011, "speech_count": 1 }, "geometry": { "type": "Point", "coordinates": [ 130.2989, 33.2494 ] } },
{ "type": "Feature", "properties": { "latitude": 33.498, "longitude": -80.8431, "location": "Orangeburg", "year": 2011, "speech_count": 1 }, "geometry": { "type": "Point", "coordinates": [ -80.8431, 33.498 ] } },
{ "type": "Feature", "properties": { "latitude": 33.749, "longitude": -84.3879, "location": "Atlanta", "year": 2011, "speech_count": 1 }, "geometry": { "type": "Point", "coordinates": [ -84.3879, 33.749 ] } },
{ "type": "Feature", "properties": { "latitude": 33.8056, "longitude": -84.1239, "location": "Stone Mountain", "year": 2011, "speech_count": 1 }, "geometry": { "type": "Point", "coordinates": [ -84.1239, 33.8056 ] } },
{ "type": "Feature", "properties": { "latitude": 34.0522, "longitude": -118.2437, "location": "Los Angeles", "year": 2011, "speech_count": 1 }, "geometry": { "type": "Point", "coordinates": [ -118.2437, 34.0522 ] } },
{ "type": "Feature", "properties": { "latitude": 34.5997, "longitude": 136.6794, "location": "Mie", "year": 2011, "speech_count": 1 }, "geometry": { "type": "Point", "coordinates": [ 136.6794, 34.5997 ] } },
{ "type": "Feature", "properties": { "latitude": 34.6851, "longitude": 135.7976, "location": "Nara", "year": 2011, "speech_count": 1 }, "geometry": { "type": "Point", "coordinates": [ 135.7976, 34.6851 ] } },
{ "type": "Feature", "properties": { "latitude": 34.6937, "longitude": 135.5023, "location": "Osaka", "year": 2011, "speech_count": 1 }, "geometry": { "type": "Point", "coordinates": [ 135.5023, 34.6937 ] } },
{ "type": "Feature", "properties": { "latitude": 35.0116, "longitude": 135.7683, "location": "Kyoto", "year": 2011, "speech_count": 1 }, "geometry": { "type": "Point", "coordinates": [ 135.7683, 35.0116 ] } },
{ "type": "Feature", "properties": { "latitude": 35.0218, "longitude": 135.7552, "location": "Kyoto", "year": 2011, "speech_count": 1 }, "geometry": { "type": "Point", "coordinates": [ 135.7552, 35.0218 ] } },
{ "type": "Feature", "properties": { "latitude": 35.1815, "longitude": 136.9064, "location": "Nagoya", "year": 2011, "speech_count": 1 }, "geometry": { "type": "Point", "coordinates": [ 136.9064, 35.1815 ] } },
{ "type": "Feature", "properties": { "latitude": 35.2271, "longitude": -80.8431, "location": "Charlotte", "year": 2011, "speech_count": 1 }, "geometry": { "type": "Point", "coordinates": [ -80.8431, 35.2271 ] } },
{ "type": "Feature", "properties": { "latitude": 35.4478, "longitude": 139.6425, "location": "Kanagawa", "year": 2011, "speech_count": 1 }, "geometry": { "type": "Point", "coordinates": [ 139.6425, 35.4478 ] } },
{ "type": "Feature", "properties": { "latitude": 35.6639, "longitude": 138.5686, "location": "Yamanashi", "year": 2011, "speech_count": 1 }, "geometry": { "type": "Point", "coordinates": [ 138.5686, 35.6639 ] } },
{ "type": "Feature", "properties": { "latitude": 35.6895, "longitude": 139.6917, "location": "Tokyo", "year": 2011, "speech_count": 16 }, "geometry": { "type": "Point", "coordinates": [ 139.6917, 35.6895 ] } },
{ "type": "Feature", "properties": { "latitude": 35.8978, "longitude": 14.5125, "location": "Valletta", "year": 2011, "speech_count": 1 }, "geometry": { "type": "Point", "coordinates": [ 14.5125, 35.8978 ] } },
{ "type": "Feature", "properties": { "latitude": 35.9078, "longitude": 14.4944, "location": "St. Julian's", "year": 2011, "speech_count": 1 }, "geometry": { "type": "Point", "coordinates": [ 14.4944, 35.9078 ] } },
{ "type": "Feature", "properties": { "latitude": 35.9078, "longitude": 14.498, "location": "Saint Julian's", "year": 2011, "speech_count": 1 }, "geometry": { "type": "Point", "coordinates": [ 14.498, 35.9078 ] } },
{ "type": "Feature", "properties": { "latitude": 35.9132, "longitude": -79.0558, "location": "Chapel Hill, North Carolina", "year": 2011, "speech_count": 1 }, "geometry": { "type": "Point", "coordinates": [ -79.0558, 35.9132 ] } },
{ "type": "Feature", "properties": { "latitude": 36.6514, "longitude": 138.1811, "location": "Nagano", "year": 2011, "speech_count": 1 }, "geometry": { "type": "Point", "coordinates": [ 138.1811, 36.6514 ] } },
{ "type": "Feature", "properties": { "latitude": 36.7201, "longitude": -4.4203, "location": "Málaga", "year": 2011, "speech_count": 1 }, "geometry": { "type": "Point", "coordinates": [ -4.4203, 36.7201 ] } },
{ "type": "Feature", "properties": { "latitude": 36.8529, "longitude": -75.9772, "location": "Virginia Beach, Virginia", "year": 2011, "speech_count": 1 }, "geometry": { "type": "Point", "coordinates": [ -75.9772, 36.8529 ] } },
{ "type": "Feature", "properties": { "latitude": 37.4275, "longitude": -122.1697, "location": "Stanford", "year": 2011, "speech_count": 2 }, "geometry": { "type": "Point", "coordinates": [ -122.1697, 37.4275 ] } },
{ "type": "Feature", "properties": { "latitude": 37.5026, "longitude": 15.0873, "location": "Catania", "year": 2011, "speech_count": 1 }, "geometry": { "type": "Point", "coordinates": [ 15.0873, 37.5026 ] } },
{ "type": "Feature", "properties": { "latitude": 37.5173, "longitude": 23.4437, "location": "Poros", "year": 2011, "speech_count": 1 }, "geometry": { "type": "Point", "coordinates": [ 23.4437, 37.5173 ] } },
{ "type": "Feature", "properties": { "latitude": 37.5407, "longitude": -77.436, "location": "Richmond", "year": 2011, "speech_count": 1 }, "geometry": { "type": "Point", "coordinates": [ -77.436, 37.5407 ] } },
{ "type": "Feature", "properties": { "latitude": 37.5665, "longitude": 126.978, "location": "Seoul", "year": 2011, "speech_count": 8 }, "geometry": { "type": "Point", "coordinates": [ 126.978, 37.5665 ] } },
{ "type": "Feature", "properties": { "latitude": 37.7749, "longitude": -122.4194, "location": "San Francisco", "year": 2011, "speech_count": 3 }, "geometry": { "type": "Point", "coordinates": [ -122.4194, 37.7749 ] } },
{ "type": "Feature", "properties": { "latitude": 37.9838, "longitude": 23.7275, "location": "Athens", "year": 2011, "speech_count": 4 }, "geometry": { "type": "Point", "coordinates": [ 23.7275, 37.9838 ] } },
{ "type": "Feature", "properties": { "latitude": 38.2305, "longitude": 23.7266, "location": "Attica", "year": 2011, "speech_count": 1 }, "geometry": { "type": "Point", "coordinates": [ 23.7266, 38.2305 ] } },
{ "type": "Feature", "properties": { "latitude": 38.627, "longitude": -90.1994, "location": "St. Louis", "year": 2011, "speech_count": 2 }, "geometry": { "type": "Point", "coordinates": [ -90.1994, 38.627 ] } },
{ "type": "Feature", "properties": { "latitude": 38.7223, "longitude": -9.1393, "location": "Lisbon", "year": 2011, "speech_count": 3 }, "geometry": { "type": "Point", "coordinates": [ -9.1393, 38.7223 ] } },
{ "type": "Feature", "properties": { "latitude": 38.8811, "longitude": -77.1025, "location": "Arlington", "year": 2011, "speech_count": 1 }, "geometry": { "type": "Point", "coordinates": [ -77.1025, 38.8811 ] } },
{ "type": "Feature", "properties": { "latitude": 38.8821, "longitude": -77.1024, "location": "Arlington", "year": 2011, "speech_count": 1 }, "geometry": { "type": "Point", "coordinates": [ -77.1024, 38.8821 ] } },
{ "type": "Feature", "properties": { "latitude": 38.8951, "longitude": -77.0369, "location": "Washington", "year": 2011, "speech_count": 2 }, "geometry": { "type": "Point", "coordinates": [ -77.0369, 38.8951 ] } },
{ "type": "Feature", "properties": { "latitude": 38.8951, "longitude": -77.0364, "location": "Washington", "year": 2011, "speech_count": 48 }, "geometry": { "type": "Point", "coordinates": [ -77.0364, 38.8951 ] } },
{ "type": "Feature", "properties": { "latitude": 38.9897, "longitude": -77.009, "location": "Columbia", "year": 2011, "speech_count": 1 }, "geometry": { "type": "Point", "coordinates": [ -77.009, 38.9897 ] } },
{ "type": "Feature", "properties": { "latitude": 39.0997, "longitude": -94.5786, "location": "Kansas City", "year": 2011, "speech_count": 1 }, "geometry": { "type": "Point", "coordinates": [ -94.5786, 39.0997 ] } },
{ "type": "Feature", "properties": { "latitude": 39.7392, "longitude": -104.9903, "location": "Denver", "year": 2011, "speech_count": 2 }, "geometry": { "type": "Point", "coordinates": [ -104.9903, 39.7392 ] } },
{ "type": "Feature", "properties": { "latitude": 39.7392, "longitude": -104.9847, "location": "Denver", "year": 2011, "speech_count": 3 }, "geometry": { "type": "Point", "coordinates": [ -104.9847, 39.7392 ] } },
{ "type": "Feature", "properties": { "latitude": 39.9042, "longitude": 116.4074, "location": "Beijing", "year": 2011, "speech_count": 1 }, "geometry": { "type": "Point", "coordinates": [ 116.4074, 39.9042 ] } },
{ "type": "Feature", "properties": { "latitude": 39.9208, "longitude": 32.8541, "location": "Ankara", "year": 2011, "speech_count": 4 }, "geometry": { "type": "Point", "coordinates": [ 32.8541, 39.9208 ] } },
{ "type": "Feature", "properties": { "latitude": 39.9526, "longitude": -75.1652, "location": "Philadelphia", "year": 2011, "speech_count": 5 }, "geometry": { "type": "Point", "coordinates": [ -75.1652, 39.9526 ] } },
{ "type": "Feature", "properties": { "latitude": 40.1934, "longitude": -85.3863, "location": "Muncie, IN", "year": 2011, "speech_count": 1 }, "geometry": { "type": "Point", "coordinates": [ -85.3863, 40.1934 ] } },
{ "type": "Feature", "properties": { "latitude": 40.4165, "longitude": -3.7026, "location": "Madrid", "year": 2011, "speech_count": 2 }, "geometry": { "type": "Point", "coordinates": [ -3.7026, 40.4165 ] } },
{ "type": "Feature", "properties": { "latitude": 40.4167, "longitude": -3.7033, "location": "Madrid", "year": 2011, "speech_count": 4 }, "geometry": { "type": "Point", "coordinates": [ -3.7033, 40.4167 ] } },
{ "type": "Feature", "properties": { "latitude": 40.4168, "longitude": -3.7038, "location": "Madrid", "year": 2011, "speech_count": 5 }, "geometry": { "type": "Point", "coordinates": [ -3.7038, 40.4168 ] } },
{ "type": "Feature", "properties": { "latitude": 40.6449, "longitude": -111.4989, "location": "Park City", "year": 2011, "speech_count": 1 }, "geometry": { "type": "Point", "coordinates": [ -111.4989, 40.6449 ] } },
{ "type": "Feature", "properties": { "latitude": 40.7127, "longitude": -74.0059, "location": "New York", "year": 2011, "speech_count": 11 }, "geometry": { "type": "Point", "coordinates": [ -74.0059, 40.7127 ] } },
{ "type": "Feature", "properties": { "latitude": 40.7128, "longitude": -74.006, "location": "New York", "year": 2011, "speech_count": 3 }, "geometry": { "type": "Point", "coordinates": [ -74.006, 40.7128 ] } },
{ "type": "Feature", "properties": { "latitude": 40.7128, "longitude": -74.0059, "location": "New York", "year": 2011, "speech_count": 18 }, "geometry": { "type": "Point", "coordinates": [ -74.0059, 40.7128 ] } },
{ "type": "Feature", "properties": { "latitude": 40.7357, "longitude": -74.1724, "location": "Newark", "year": 2011, "speech_count": 1 }, "geometry": { "type": "Point", "coordinates": [ -74.1724, 40.7357 ] } },
{ "type": "Feature", "properties": { "latitude": 40.8244, "longitude": 140.7556, "location": "Aomori", "year": 2011, "speech_count": 1 }, "geometry": { "type": "Point", "coordinates": [ 140.7556, 40.8244 ] } },
{ "type": "Feature", "properties": { "latitude": 40.8495, "longitude": -73.8666, "location": "Bronx", "year": 2011, "speech_count": 1 }, "geometry": { "type": "Point", "coordinates": [ -73.8666, 40.8495 ] } },
{ "type": "Feature", "properties": { "latitude": 40.9801, "longitude": -74.8528, "location": "Wharton", "year": 2011, "speech_count": 1 }, "geometry": { "type": "Point", "coordinates": [ -74.8528, 40.9801 ] } },
{ "type": "Feature", "properties": { "latitude": 41.0082, "longitude": 28.9784, "location": "Istanbul", "year": 2011, "speech_count": 5 }, "geometry": { "type": "Point", "coordinates": [ 28.9784, 41.0082 ] } },
{ "type": "Feature", "properties": { "latitude": 41.0138, "longitude": 28.9534, "location": "Istanbul", "year": 2011, "speech_count": 1 }, "geometry": { "type": "Point", "coordinates": [ 28.9534, 41.0138 ] } },
{ "type": "Feature", "properties": { "latitude": 41.2219, "longitude": 1.8044, "location": "Sitges", "year": 2011, "speech_count": 2 }, "geometry": { "type": "Point", "coordinates": [ 1.8044, 41.2219 ] } },
{ "type": "Feature", "properties": { "latitude": 41.3275, "longitude": 19.8187, "location": "Tirana", "year": 2011, "speech_count": 9 }, "geometry": { "type": "Point", "coordinates": [ 19.8187, 41.3275 ] } },
{ "type": "Feature", "properties": { "latitude": 41.3275, "longitude": 19.8189, "location": "Tirana", "year": 2011, "speech_count": 11 }, "geometry": { "type": "Point", "coordinates": [ 19.8189, 41.3275 ] } },
{ "type": "Feature", "properties": { "latitude": 41.327545, "longitude": 19.818698, "location": "Tirana", "year": 2011, "speech_count": 1 }, "geometry": { "type": "Point", "coordinates": [ 19.818698, 41.327545 ] } },
{ "type": "Feature", "properties": { "latitude": 41.3851, "longitude": 2.1734, "location": "Barcelona", "year": 2011, "speech_count": 1 }, "geometry": { "type": "Point", "coordinates": [ 2.1734, 41.3851 ] } },
{ "type": "Feature", "properties": { "latitude": 41.3995, "longitude": -73.9709, "location": "West Point", "year": 2011, "speech_count": 1 }, "geometry": { "type": "Point", "coordinates": [ -73.9709, 41.3995 ] } },
{ "type": "Feature", "properties": { "latitude": 41.4995, "longitude": -81.6954, "location": "Cleveland", "year": 2011, "speech_count": 2 }, "geometry": { "type": "Point", "coordinates": [ -81.6954, 41.4995 ] } },
{ "type": "Feature", "properties": { "latitude": 41.6005, "longitude": -93.6091, "location": "Des Moines", "year": 2011, "speech_count": 1 }, "geometry": { "type": "Point", "coordinates": [ -93.6091, 41.6005 ] } },
{ "type": "Feature", "properties": { "latitude": 41.7486, "longitude": -74.0843, "location": "New Paltz, New York", "year": 2011, "speech_count": 1 }, "geometry": { "type": "Point", "coordinates": [ -74.0843, 41.7486 ] } },
{ "type": "Feature", "properties": { "latitude": 41.7637, "longitude": -72.6851, "location": "Hartford, Connecticut", "year": 2011, "speech_count": 1 }, "geometry": { "type": "Point", "coordinates": [ -72.6851, 41.7637 ] } },
{ "type": "Feature", "properties": { "latitude": 41.7789, "longitude": 140.7394, "location": "Hakodate", "year": 2011, "speech_count": 1 }, "geometry": { "type": "Point", "coordinates": [ 140.7394, 41.7789 ] } },
{ "type": "Feature", "properties": { "latitude": 41.8781, "longitude": -87.6298, "location": "Chicago", "year": 2011, "speech_count": 3 }, "geometry": { "type": "Point", "coordinates": [ -87.6298, 41.8781 ] } },
{ "type": "Feature", "properties": { "latitude": 41.8819, "longitude": -87.6236, "location": "Chicago", "year": 2011, "speech_count": 1 }, "geometry": { "type": "Point", "coordinates": [ -87.6236, 41.8819 ] } },
{ "type": "Feature", "properties": { "latitude": 41.8902, "longitude": 12.4923, "location": "Rome", "year": 2011, "speech_count": 8 }, "geometry": { "type": "Point", "coordinates": [ 12.4923, 41.8902 ] } },
{ "type": "Feature", "properties": { "latitude": 41.9981, "longitude": 21.4254, "location": "Skopje", "year": 2011, "speech_count": 1 }, "geometry": { "type": "Point", "coordinates": [ 21.4254, 41.9981 ] } },
{ "type": "Feature", "properties": { "latitude": 42.0, "longitude": 21.4333, "location": "Skopje", "year": 2011, "speech_count": 1 }, "geometry": { "type": "Point", "coordinates": [ 21.4333, 42.0 ] } },
{ "type": "Feature", "properties": { "latitude": 42.0642, "longitude": 19.5142, "location": "Shkodra", "year": 2011, "speech_count": 1 }, "geometry": { "type": "Point", "coordinates": [ 19.5142, 42.0642 ] } },
{ "type": "Feature", "properties": { "latitude": 42.3314, "longitude": -83.0458, "location": "Detroit, Michigan", "year": 2011, "speech_count": 1 }, "geometry": { "type": "Point", "coordinates": [ -83.0458, 42.3314 ] } },
{ "type": "Feature", "properties": { "latitude": 42.3601, "longitude": -71.0589, "location": "Boston", "year": 2011, "speech_count": 6 }, "geometry": { "type": "Point", "coordinates": [ -71.0589, 42.3601 ] } },
{ "type": "Feature", "properties": { "latitude": 42.6525, "longitude": -73.7562, "location": "Albany", "year": 2011, "speech_count": 1 }, "geometry": { "type": "Point", "coordinates": [ -73.7562, 42.6525 ] } },
{ "type": "Feature", "properties": { "latitude": 42.6977, "longitude": 23.3219, "location": "Sofia", "year": 2011, "speech_count": 1 }, "geometry": { "type": "Point", "coordinates": [ 23.3219, 42.6977 ] } },
{ "type": "Feature", "properties": { "latitude": 43.4625, "longitude": -3.8037, "location": "Santander", "year": 2011, "speech_count": 1 }, "geometry": { "type": "Point", "coordinates": [ -3.8037, 43.4625 ] } },
{ "type": "Feature", "properties": { "latitude": 43.5291, "longitude": 5.4488, "location": "Aix-en-Provence", "year": 2011, "speech_count": 1 }, "geometry": { "type": "Point", "coordinates": [ 5.4488, 43.5291 ] } },
{ "type": "Feature", "properties": { "latitude": 43.5295, "longitude": 5.4478, "location": "Aix-en-Provence", "year": 2011, "speech_count": 1 }, "geometry": { "type": "Point", "coordinates": [ 5.4478, 43.5295 ] } },
{ "type": "Feature", "properties": { "latitude": 43.5499, "longitude": -96.7003, "location": "Sioux Falls", "year": 2011, "speech_count": 1 }, "geometry": { "type": "Point", "coordinates": [ -96.7003, 43.5499 ] } },
{ "type": "Feature", "properties": { "latitude": 43.5836, "longitude": -110.8429, "location": "Jackson Hole", "year": 2011, "speech_count": 1 }, "geometry": { "type": "Point", "coordinates": [ -110.8429, 43.5836 ] } },
{ "type": "Feature", "properties": { "latitude": 43.5872, "longitude": -110.7789, "location": "Jackson Hole", "year": 2011, "speech_count": 1 }, "geometry": { "type": "Point", "coordinates": [ -110.7789, 43.5872 ] } },
{ "type": "Feature", "properties": { "latitude": 43.6532, "longitude": -79.3832, "location": "Toronto", "year": 2011, "speech_count": 3 }, "geometry": { "type": "Point", "coordinates": [ -79.3832, 43.6532 ] } },
{ "type": "Feature", "properties": { "latitude": 43.7001, "longitude": -79.4163, "location": "Toronto", "year": 2011, "speech_count": 1 }, "geometry": { "type": "Point", "coordinates": [ -79.4163, 43.7001 ] } },
{ "type": "Feature", "properties": { "latitude": 43.7696, "longitude": 11.2558, "location": "Florence", "year": 2011, "speech_count": 3 }, "geometry": { "type": "Point", "coordinates": [ 11.2558, 43.7696 ] } },
{ "type": "Feature", "properties": { "latitude": 43.8083, "longitude": 11.2717, "location": "Badia Fiesolana", "year": 2011, "speech_count": 2 }, "geometry": { "type": "Point", "coordinates": [ 11.2717, 43.8083 ] } },
{ "type": "Feature", "properties": { "latitude": 43.8406, "longitude": 10.5054, "location": "Lucca", "year": 2011, "speech_count": 1 }, "geometry": { "type": "Point", "coordinates": [ 10.5054, 43.8406 ] } },
{ "type": "Feature", "properties": { "latitude": 44.0124, "longitude": -84.2003, "location": "Midland", "year": 2011, "speech_count": 1 }, "geometry": { "type": "Point", "coordinates": [ -84.2003, 44.0124 ] } },
{ "type": "Feature", "properties": { "latitude": 44.2314, "longitude": -76.4867, "location": "Kingston", "year": 2011, "speech_count": 1 }, "geometry": { "type": "Point", "coordinates": [ -76.4867, 44.2314 ] } },
{ "type": "Feature", "properties": { "latitude": 44.2314, "longitude": -76.4856, "location": "Kingston, Ontario", "year": 2011, "speech_count": 1 }, "geometry": { "type": "Point", "coordinates": [ -76.4856, 44.2314 ] } },
{ "type": "Feature", "properties": { "latitude": 44.2314, "longitude": -76.4845, "location": "Kingston, Ontario", "year": 2011, "speech_count": 1 }, "geometry": { "type": "Point", "coordinates": [ -76.4845, 44.2314 ] } },
{ "type": "Feature", "properties": { "latitude": 44.2853, "longitude": -71.5431, "location": "Bretton Woods", "year": 2011, "speech_count": 1 }, "geometry": { "type": "Point", "coordinates": [ -71.5431, 44.2853 ] } },
{ "type": "Feature", "properties": { "latitude": 44.4268, "longitude": 26.1025, "location": "Bucharest", "year": 2011, "speech_count": 2 }, "geometry": { "type": "Point", "coordinates": [ 26.1025, 44.4268 ] } },
{ "type": "Feature", "properties": { "latitude": 44.4322, "longitude": 26.1063, "location": "Bucharest", "year": 2011, "speech_count": 3 }, "geometry": { "type": "Point", "coordinates": [ 26.1063, 44.4322 ] } },
{ "type": "Feature", "properties": { "latitude": 44.4325, "longitude": 26.1039, "location": "Bucharest", "year": 2011, "speech_count": 1 }, "geometry": { "type": "Point", "coordinates": [ 26.1039, 44.4325 ] } },
{ "type": "Feature", "properties": { "latitude": 44.4939, "longitude": 11.3426, "location": "Bologna", "year": 2011, "speech_count": 1 }, "geometry": { "type": "Point", "coordinates": [ 11.3426, 44.4939 ] } },
{ "type": "Feature", "properties": { "latitude": 44.4943, "longitude": 33.9603, "location": "Balaclava", "year": 2011, "speech_count": 1 }, "geometry": { "type": "Point", "coordinates": [ 33.9603, 44.4943 ] } },
{ "type": "Feature", "properties": { "latitude": 44.4949, "longitude": 11.3426, "location": "Bologna", "year": 2011, "speech_count": 1 }, "geometry": { "type": "Point", "coordinates": [ 11.3426, 44.4949 ] } },
{ "type": "Feature", "properties": { "latitude": 44.6929, "longitude": -73.464, "location": "Plattsburgh", "year": 2011, "speech_count": 1 }, "geometry": { "type": "Point", "coordinates": [ -73.464, 44.6929 ] } },
{ "type": "Feature", "properties": { "latitude": 44.8181, "longitude": 20.4681, "location": "Belgrade", "year": 2011, "speech_count": 1 }, "geometry": { "type": "Point", "coordinates": [ 20.4681, 44.8181 ] } },
{ "type": "Feature", "properties": { "latitude": 44.8186, "longitude": 20.4681, "location": "Belgrade", "year": 2011, "speech_count": 1 }, "geometry": { "type": "Point", "coordinates": [ 20.4681, 44.8186 ] } },
{ "type": "Feature", "properties": { "latitude": 44.8186, "longitude": 20.4689, "location": "Belgrade", "year": 2011, "speech_count": 1 }, "geometry": { "type": "Point", "coordinates": [ 20.4689, 44.8186 ] } },
{ "type": "Feature", "properties": { "latitude": 44.8378, "longitude": -0.5792, "location": "Bordeaux", "year": 2011, "speech_count": 1 }, "geometry": { "type": "Point", "coordinates": [ -0.5792, 44.8378 ] } },
{ "type": "Feature", "properties": { "latitude": 44.9778, "longitude": -93.265, "location": "Minneapolis", "year": 2011, "speech_count": 3 }, "geometry": { "type": "Point", "coordinates": [ -93.265, 44.9778 ] } },
{ "type": "Feature", "properties": { "latitude": 45.0083, "longitude": 7.6783, "location": "Moncalieri", "year": 2011, "speech_count": 1 }, "geometry": { "type": "Point", "coordinates": [ 7.6783, 45.0083 ] } },
{ "type": "Feature", "properties": { "latitude": 45.2735, "longitude": -66.0628, "location": "Saint John", "year": 2011, "speech_count": 1 }, "geometry": { "type": "Point", "coordinates": [ -66.0628, 45.2735 ] } },
{ "type": "Feature", "properties": { "latitude": 45.4215, "longitude": -75.6972, "location": "Ottawa", "year": 2011, "speech_count": 8 }, "geometry": { "type": "Point", "coordinates": [ -75.6972, 45.4215 ] } },
{ "type": "Feature", "properties": { "latitude": 45.4215, "longitude": -75.6919, "location": "Ottawa", "year": 2011, "speech_count": 2 }, "geometry": { "type": "Point", "coordinates": [ -75.6919, 45.4215 ] } },
{ "type": "Feature", "properties": { "latitude": 45.4388, "longitude": 10.9922, "location": "Verona", "year": 2011, "speech_count": 1 }, "geometry": { "type": "Point", "coordinates": [ 10.9922, 45.4388 ] } },
{ "type": "Feature", "properties": { "latitude": 45.4642, "longitude": 9.1895, "location": "Milan", "year": 2011, "speech_count": 4 }, "geometry": { "type": "Point", "coordinates": [ 9.1895, 45.4642 ] } },
{ "type": "Feature", "properties": { "latitude": 45.5017, "longitude": -73.5673, "location": "Montréal", "year": 2011, "speech_count": 3 }, "geometry": { "type": "Point", "coordinates": [ -73.5673, 45.5017 ] } },
{ "type": "Feature", "properties": { "latitude": 45.5088, "longitude": -73.5878, "location": "Montréal", "year": 2011, "speech_count": 1 }, "geometry": { "type": "Point", "coordinates": [ -73.5878, 45.5088 ] } },
{ "type": "Feature", "properties": { "latitude": 46.1591, "longitude": -112.9363, "location": "Montana", "year": 2011, "speech_count": 1 }, "geometry": { "type": "Point", "coordinates": [ -112.9363, 46.1591 ] } },
{ "type": "Feature", "properties": { "latitude": 46.2042, "longitude": 6.1432, "location": "Geneva", "year": 2011, "speech_count": 1 }, "geometry": { "type": "Point", "coordinates": [ 6.1432, 46.2042 ] } },
{ "type": "Feature", "properties": { "latitude": 46.2043, "longitude": 6.1432, "location": "Geneva", "year": 2011, "speech_count": 1 }, "geometry": { "type": "Point", "coordinates": [ 6.1432, 46.2043 ] } },
{ "type": "Feature", "properties": { "latitude": 46.2044, "longitude": 6.1432, "location": "Geneva", "year": 2011, "speech_count": 1 }, "geometry": { "type": "Point", "coordinates": [ 6.1432, 46.2044 ] } },
{ "type": "Feature", "properties": { "latitude": 46.4316, "longitude": 6.9128, "location": "Montreux", "year": 2011, "speech_count": 1 }, "geometry": { "type": "Point", "coordinates": [ 6.9128, 46.4316 ] } },
{ "type": "Feature", "properties": { "latitude": 46.8133, "longitude": -100.7794, "location": "Bismarck", "year": 2011, "speech_count": 1 }, "geometry": { "type": "Point", "coordinates": [ -100.7794, 46.8133 ] } },
{ "type": "Feature", "properties": { "latitude": 46.8182, "longitude": 8.2275, "location": "Switzerland", "year": 2011, "speech_count": 1 }, "geometry": { "type": "Point", "coordinates": [ 8.2275, 46.8182 ] } },
{ "type": "Feature", "properties": { "latitude": 46.948, "longitude": 7.4474, "location": "Berne", "year": 2011, "speech_count": 4 }, "geometry": { "type": "Point", "coordinates": [ 7.4474, 46.948 ] } },
{ "type": "Feature", "properties": { "latitude": 46.948093, "longitude": 7.447447, "location": "Berne", "year": 2011, "speech_count": 2 }, "geometry": { "type": "Point", "coordinates": [ 7.447447, 46.948093 ] } },
{ "type": "Feature", "properties": { "latitude": 47.3686, "longitude": 8.5391, "location": "Zurich", "year": 2011, "speech_count": 1 }, "geometry": { "type": "Point", "coordinates": [ 8.5391, 47.3686 ] } },
{ "type": "Feature", "properties": { "latitude": 47.3769, "longitude": 8.5417, "location": "Zurich", "year": 2011, "speech_count": 7 }, "geometry": { "type": "Point", "coordinates": [ 8.5417, 47.3769 ] } },
{ "type": "Feature", "properties": { "latitude": 47.3911, "longitude": 11.8515, "location": "Alpbach", "year": 2011, "speech_count": 1 }, "geometry": { "type": "Point", "coordinates": [ 11.8515, 47.3911 ] } },
{ "type": "Feature", "properties": { "latitude": 47.4246, "longitude": 9.3774, "location": "St. Gallen", "year": 2011, "speech_count": 1 }, "geometry": { "type": "Point", "coordinates": [ 9.3774, 47.4246 ] } },
{ "type": "Feature", "properties": { "latitude": 47.5596, "longitude": 7.5889, "location": "Basel", "year": 2011, "speech_count": 2 }, "geometry": { "type": "Point", "coordinates": [ 7.5889, 47.5596 ] } },
{ "type": "Feature", "properties": { "latitude": 47.6581, "longitude": 11.7126, "location": "Wildbad Kreuth, Germany", "year": 2011, "speech_count": 1 }, "geometry": { "type": "Point", "coordinates": [ 11.7126, 47.6581 ] } },
{ "type": "Feature", "properties": { "latitude": 47.8095, "longitude": 13.055, "location": "Salzburg", "year": 2011, "speech_count": 1 }, "geometry": { "type": "Point", "coordinates": [ 13.055, 47.8095 ] } },
{ "type": "Feature", "properties": { "latitude": 48.2082, "longitude": 16.3738, "location": "Vienna", "year": 2011, "speech_count": 11 }, "geometry": { "type": "Point", "coordinates": [ 16.3738, 48.2082 ] } },
{ "type": "Feature", "properties": { "latitude": 48.8566, "longitude": 2.3522, "location": "Paris", "year": 2011, "speech_count": 13 }, "geometry": { "type": "Point", "coordinates": [ 2.3522, 48.8566 ] } },
{ "type": "Feature", "properties": { "latitude": 48.8582, "longitude": 2.2945, "location": "Paris", "year": 2011, "speech_count": 8 }, "geometry": { "type": "Point", "coordinates": [ 2.2945, 48.8582 ] } },
{ "type": "Feature", "properties": { "latitude": 49.1919, "longitude": -2.107, "location": "St Helier", "year": 2011, "speech_count": 1 }, "geometry": { "type": "Point", "coordinates": [ -2.107, 49.1919 ] } },
{ "type": "Feature", "properties": { "latitude": 49.2827, "longitude": -123.1207, "location": "Vancouver", "year": 2011, "speech_count": 4 }, "geometry": { "type": "Point", "coordinates": [ -123.1207, 49.2827 ] } },
{ "type": "Feature", "properties": { "latitude": 49.6116, "longitude": 6.1319, "location": "Luxembourg", "year": 2011, "speech_count": 3 }, "geometry": { "type": "Point", "coordinates": [ 6.1319, 49.6116 ] } },
{ "type": "Feature", "properties": { "latitude": 49.8951, "longitude": -97.1384, "location": "Winnipeg", "year": 2011, "speech_count": 1 }, "geometry": { "type": "Point", "coordinates": [ -97.1384, 49.8951 ] } },
{ "type": "Feature", "properties": { "latitude": 50.0167, "longitude": 8.15, "location": "Eltville", "year": 2011, "speech_count": 1 }, "geometry": { "type": "Point", "coordinates": [ 8.15, 50.0167 ] } },
{ "type": "Feature", "properties": { "latitude": 50.1109, "longitude": 8.6821, "location": "Frankfurt", "year": 2011, "speech_count": 45 }, "geometry": { "type": "Point", "coordinates": [ 8.6821, 50.1109 ] } },
{ "type": "Feature", "properties": { "latitude": 50.3691, "longitude": 7.6158, "location": "Vallendar, Rhineland-Palatinate", "year": 2011, "speech_count": 1 }, "geometry": { "type": "Point", "coordinates": [ 7.6158, 50.3691 ] } },
{ "type": "Feature", "properties": { "latitude": 50.4499, "longitude": -104.6189, "location": "Regina", "year": 2011, "speech_count": 1 }, "geometry": { "type": "Point", "coordinates": [ -104.6189, 50.4499 ] } },
{ "type": "Feature", "properties": { "latitude": 50.6333, "longitude": 5.5794, "location": "Liège", "year": 2011, "speech_count": 1 }, "geometry": { "type": "Point", "coordinates": [ 5.5794, 50.6333 ] } },
{ "type": "Feature", "properties": { "latitude": 50.7766, "longitude": 6.0836, "location": "Aachen", "year": 2011, "speech_count": 2 }, "geometry": { "type": "Point", "coordinates": [ 6.0836, 50.7766 ] } },
{ "type": "Feature", "properties": { "latitude": 50.7766, "longitude": 6.0839, "location": "Aachen", "year": 2011, "speech_count": 1 }, "geometry": { "type": "Point", "coordinates": [ 6.0839, 50.7766 ] } },
{ "type": "Feature", "properties": { "latitude": 50.8465, "longitude": 4.3517, "location": "Brussels", "year": 2011, "speech_count": 24 }, "geometry": { "type": "Point", "coordinates": [ 4.3517, 50.8465 ] } },
{ "type": "Feature", "properties": { "latitude": 50.9333, "longitude": 6.95, "location": "Cologne", "year": 2011, "speech_count": 1 }, "geometry": { "type": "Point", "coordinates": [ 6.95, 50.9333 ] } },
{ "type": "Feature", "properties": { "latitude": 51.0447, "longitude": -114.0719, "location": "Calgary", "year": 2011, "speech_count": 2 }, "geometry": { "type": "Point", "coordinates": [ -114.0719, 51.0447 ] } },
{ "type": "Feature", "properties": { "latitude": 51.1079, "longitude": 17.0385, "location": "Wroclaw", "year": 2011, "speech_count": 1 }, "geometry": { "type": "Point", "coordinates": [ 17.0385, 51.1079 ] } },
{ "type": "Feature", "properties": { "latitude": 51.1657, "longitude": 10.4515, "location": "Germany", "year": 2011, "speech_count": 2 }, "geometry": { "type": "Point", "coordinates": [ 10.4515, 51.1657 ] } },
{ "type": "Feature", "properties": { "latitude": 51.4829, "longitude": 11.9696, "location": "Halle an der Saale", "year": 2011, "speech_count": 1 }, "geometry": { "type": "Point", "coordinates": [ 11.9696, 51.4829 ] } },
{ "type": "Feature", "properties": { "latitude": 51.5074, "longitude": -0.1278, "location": "London", "year": 2011, "speech_count": 33 }, "geometry": { "type": "Point", "coordinates": [ -0.1278, 51.5074 ] } },
{ "type": "Feature", "properties": { "latitude": 51.7522, "longitude": -1.255, "location": "Oxford", "year": 2011, "speech_count": 1 }, "geometry": { "type": "Point", "coordinates": [ -1.255, 51.7522 ] } },
{ "type": "Feature", "properties": { "latitude": 51.8988, "longitude": -8.4758, "location": "Cork", "year": 2011, "speech_count": 1 }, "geometry": { "type": "Point", "coordinates": [ -8.4758, 51.8988 ] } },
{ "type": "Feature", "properties": { "latitude": 52.0308, "longitude": -0.4227, "location": "Bedfordshire", "year": 2011, "speech_count": 1 }, "geometry": { "type": "Point", "coordinates": [ -0.4227, 52.0308 ] } },
{ "type": "Feature", "properties": { "latitude": 52.1902, "longitude": 4.9244, "location": "Breukelen", "year": 2011, "speech_count": 1 }, "geometry": { "type": "Point", "coordinates": [ 4.9244, 52.1902 ] } },
{ "type": "Feature", "properties": { "latitude": 52.2053, "longitude": 0.1218, "location": "Cambridge", "year": 2011, "speech_count": 3 }, "geometry": { "type": "Point", "coordinates": [ 0.1218, 52.2053 ] } },
{ "type": "Feature", "properties": { "latitude": 52.2297, "longitude": 21.0122, "location": "Warsaw", "year": 2011, "speech_count": 1 }, "geometry": { "type": "Point", "coordinates": [ 21.0122, 52.2297 ] } },
{ "type": "Feature", "properties": { "latitude": 52.2376, "longitude": 0.7471, "location": "Horringer, Bury St Edmunds, Suffolk", "year": 2011, "speech_count": 1 }, "geometry": { "type": "Point", "coordinates": [ 0.7471, 52.2376 ] } },
{ "type": "Feature", "properties": { "latitude": 52.3676, "longitude": 4.9041, "location": "Amsterdam", "year": 2011, "speech_count": 1 }, "geometry": { "type": "Point", "coordinates": [ 4.9041, 52.3676 ] } },
{ "type": "Feature", "properties": { "latitude": 52.3702, "longitude": 4.8952, "location": "Amsterdam", "year": 2011, "speech_count": 4 }, "geometry": { "type": "Point", "coordinates": [ 4.8952, 52.3702 ] } },
{ "type": "Feature", "properties": { "latitude": 52.370216, "longitude": 4.895168, "location": "Amsterdam", "year": 2011, "speech_count": 1 }, "geometry": { "type": "Point", "coordinates": [ 4.895168, 52.370216 ] } },
{ "type": "Feature", "properties": { "latitude": 52.5167, "longitude": 13.3833, "location": "Berlin", "year": 2011, "speech_count": 1 }, "geometry": { "type": "Point", "coordinates": [ 13.3833, 52.5167 ] } },
{ "type": "Feature", "properties": { "latitude": 52.517, "longitude": 13.3889, "location": "Berlin", "year": 2011, "speech_count": 2 }, "geometry": { "type": "Point", "coordinates": [ 13.3889, 52.517 ] } },
{ "type": "Feature", "properties": { "latitude": 52.52, "longitude": 13.405, "location": "Berlin", "year": 2011, "speech_count": 9 }, "geometry": { "type": "Point", "coordinates": [ 13.405, 52.52 ] } },
{ "type": "Feature", "properties": { "latitude": 53.0793, "longitude": 8.8056, "location": "Bremen", "year": 2011, "speech_count": 1 }, "geometry": { "type": "Point", "coordinates": [ 8.8056, 53.0793 ] } },
{ "type": "Feature", "properties": { "latitude": 53.3498, "longitude": -6.2603, "location": "Dublin", "year": 2011, "speech_count": 5 }, "geometry": { "type": "Point", "coordinates": [ -6.2603, 53.3498 ] } },
{ "type": "Feature", "properties": { "latitude": 53.4084, "longitude": -2.9916, "location": "Liverpool", "year": 2011, "speech_count": 1 }, "geometry": { "type": "Point", "coordinates": [ -2.9916, 53.4084 ] } },
{ "type": "Feature", "properties": { "latitude": 53.4808, "longitude": -2.2426, "location": "Manchester", "year": 2011, "speech_count": 3 }, "geometry": { "type": "Point", "coordinates": [ -2.2426, 53.4808 ] } },
{ "type": "Feature", "properties": { "latitude": 53.5444, "longitude": -113.4909, "location": "Edmonton", "year": 2011, "speech_count": 1 }, "geometry": { "type": "Point", "coordinates": [ -113.4909, 53.5444 ] } },
{ "type": "Feature", "properties": { "latitude": 53.551, "longitude": 9.9937, "location": "Hamburg", "year": 2011, "speech_count": 1 }, "geometry": { "type": "Point", "coordinates": [ 9.9937, 53.551 ] } },
{ "type": "Feature", "properties": { "latitude": 53.5511, "longitude": 9.9937, "location": "Hamburg", "year": 2011, "speech_count": 1 }, "geometry": { "type": "Point", "coordinates": [ 9.9937, 53.5511 ] } },
{ "type": "Feature", "properties": { "latitude": 54.3235, "longitude": 10.1344, "location": "Kiel", "year": 2011, "speech_count": 1 }, "geometry": { "type": "Point", "coordinates": [ 10.1344, 54.3235 ] } },
{ "type": "Feature", "properties": { "latitude": 54.5972, "longitude": -5.9301, "location": "Belfast", "year": 2011, "speech_count": 1 }, "geometry": { "type": "Point", "coordinates": [ -5.9301, 54.5972 ] } },
{ "type": "Feature", "properties": { "latitude": 54.7667, "longitude": -8.4333, "location": "Glenties", "year": 2011, "speech_count": 1 }, "geometry": { "type": "Point", "coordinates": [ -8.4333, 54.7667 ] } },
{ "type": "Feature", "properties": { "latitude": 55.6049, "longitude": 13.0038, "location": "Malmö", "year": 2011, "speech_count": 1 }, "geometry": { "type": "Point", "coordinates": [ 13.0038, 55.6049 ] } },
{ "type": "Feature", "properties": { "latitude": 55.6761, "longitude": 12.5683, "location": "Copenhagen", "year": 2011, "speech_count": 4 }, "geometry": { "type": "Point", "coordinates": [ 12.5683, 55.6761 ] } },
{ "type": "Feature", "properties": { "latitude": 55.7522, "longitude": 37.6155, "location": "Moscow", "year": 2011, "speech_count": 1 }, "geometry": { "type": "Point", "coordinates": [ 37.6155, 55.7522 ] } },
{ "type": "Feature", "properties": { "latitude": 55.7558, "longitude": 37.6173, "location": "Moscow", "year": 2011, "speech_count": 1 }, "geometry": { "type": "Point", "coordinates": [ 37.6173, 55.7558 ] } },
{ "type": "Feature", "properties": { "latitude": 55.9533, "longitude": -3.1883, "location": "Edinburgh", "year": 2011, "speech_count": 1 }, "geometry": { "type": "Point", "coordinates": [ -3.1883, 55.9533 ] } },
{ "type": "Feature", "properties": { "latitude": 56.9496, "longitude": 24.1052, "location": "Riga", "year": 2011, "speech_count": 1 }, "geometry": { "type": "Point", "coordinates": [ 24.1052, 56.9496 ] } },
{ "type": "Feature", "properties": { "latitude": 59.2954, "longitude": 18.3052, "location": "Saltsjöbaden", "year": 2011, "speech_count": 1 }, "geometry": { "type": "Point", "coordinates": [ 18.3052, 59.2954 ] } },
{ "type": "Feature", "properties": { "latitude": 59.3293, "longitude": 18.0686, "location": "Stockholm", "year": 2011, "speech_count": 20 }, "geometry": { "type": "Point", "coordinates": [ 18.0686, 59.3293 ] } },
{ "type": "Feature", "properties": { "latitude": 59.4372, "longitude": 24.7535, "location": "Tallinn", "year": 2011, "speech_count": 1 }, "geometry": { "type": "Point", "coordinates": [ 24.7535, 59.4372 ] } },
{ "type": "Feature", "properties": { "latitude": 59.9138, "longitude": 10.7522, "location": "Oslo", "year": 2011, "speech_count": 7 }, "geometry": { "type": "Point", "coordinates": [ 10.7522, 59.9138 ] } },
{ "type": "Feature", "properties": { "latitude": 59.9139, "longitude": 10.7522, "location": "Oslo", "year": 2011, "speech_count": 3 }, "geometry": { "type": "Point", "coordinates": [ 10.7522, 59.9139 ] } },
{ "type": "Feature", "properties": { "latitude": 59.939, "longitude": 30.3158, "location": "St Petersburg", "year": 2011, "speech_count": 1 }, "geometry": { "type": "Point", "coordinates": [ 30.3158, 59.939 ] } },
{ "type": "Feature", "properties": { "latitude": 60.1699, "longitude": 24.9384, "location": "Helsinki", "year": 2011, "speech_count": 10 }, "geometry": { "type": "Point", "coordinates": [ 24.9384, 60.1699 ] } },
{ "type": "Feature", "properties": { "latitude": 63.8293, "longitude": 20.2643, "location": "Umeå", "year": 2011, "speech_count": 1 }, "geometry": { "type": "Point", "coordinates": [ 20.2643, 63.8293 ] } },
{ "type": "Feature", "properties": { "latitude": 64.1265, "longitude": -21.9424, "location": "Reykjavik", "year": 2011, "speech_count": 1 }, "geometry": { "type": "Point", "coordinates": [ -21.9424, 64.1265 ] } },
{ "type": "Feature", "properties": { "latitude": 64.1265, "longitude": -21.8174, "location": "Reykjavik", "year": 2011, "speech_count": 1 }, "geometry": { "type": "Point", "coordinates": [ -21.8174, 64.1265 ] } },
{ "type": "Feature", "properties": { "latitude": 65.5906, "longitude": 22.1564, "location": "Lulea", "year": 2011, "speech_count": 1 }, "geometry": { "type": "Point", "coordinates": [ 22.1564, 65.5906 ] } }
]
}
