{
"type": "FeatureCollection",
"name": "speeches_2021",
"crs": { "type": "name", "properties": { "name": "urn:ogc:def:crs:OGC:1.3:CRS84" } },
"features": [
{ "type": "Feature", "properties": { "latitude": -36.8485, "longitude": 174.7633, "location": "Auckland", "year": 2021, "speech_count": 1 }, "geometry": { "type": "Point", "coordinates": [ 174.7633, -36.8485 ] } },
{ "type": "Feature", "properties": { "latitude": -36.8485, "longitude": 174.7633, "location": "Tāmaki Makaurau", "year": 2021, "speech_count": 1 }, "geometry": { "type": "Point", "coordinates": [ 174.7633, -36.8485 ] } },
{ "type": "Feature", "properties": { "latitude": -35.2809, "longitude": 149.13, "location": "Canberra", "year": 2021, "speech_count": 3 }, "geometry": { "type": "Point", "coordinates": [ 149.13, -35.2809 ] } },
{ "type": "Feature", "properties": { "latitude": -35.1264, "longitude": 147.3626, "location": "Wagga Wagga", "year": 2021, "speech_count": 1 }, "geometry": { "type": "Point", "coordinates": [ 147.3626, -35.1264 ] } },
{ "type": "Feature", "properties": { "latitude": -34.9285, "longitude": 138.5999, "location": "Adelaide", "year": 2021, "speech_count": 1 }, "geometry": { "type": "Point", "coordinates": [ 138.5999, -34.9285 ] } },
{ "type": "Feature", "properties": { "latitude": -33.8688, "longitude": 151.2093, "location": "Sydney", "year": 2021, "speech_count": 1 }, "geometry": { "type": "Point", "coordinates": [ 151.2093, -33.8688 ] } },
{ "type": "Feature", "properties": { "latitude": -33.4489, "longitude": -70.6693, "location": "Santiago", "year": 2021, "speech_count": 2 }, "geometry": { "type": "Point", "coordinates": [ -70.6693, -33.4489 ] } },
{ "type": "Feature", "properties": { "latitude": -27.5605, "longitude": 151.9415, "location": "Toowoomba", "year": 2021, "speech_count": 1 }, "geometry": { "type": "Point", "coordinates": [ 151.9415, -27.5605 ] } },
{ "type": "Feature", "properties": { "latitude": -24.6509, "longitude": 25.9122, "location": "Gaborone", "year": 2021, "speech_count": 1 }, "geometry": { "type": "Point", "coordinates": [ 25.9122, -24.6509 ] } },
{ "type": "Feature", "properties": { "latitude": -24.6463, "longitude": 25.912, "location": "Gaborone", "year": 2021, "speech_count": 1 }, "geometry": { "type": "Point", "coordinates": [ 25.912, -24.6463 ] } },
{ "type": "Feature", "properties": { "latitude": -20.1609, "longitude": 57.4983, "location": "Port Louis", "year": 2021, "speech_count": 2 }, "geometry": { "type": "Point", "coordinates": [ 57.4983, -20.1609 ] } },
{ "type": "Feature", "properties": { "latitude": -20.1605, "longitude": 57.4959, "location": "Port Louis", "year": 2021, "speech_count": 1 }, "geometry": { "type": "Point", "coordinates": [ 57.4959, -20.1605 ] } },
{ "type": "Feature", "properties": { "latitude": -20.1605, "longitude": 57.4983, "location": "Port Louis", "year": 2021, "speech_count": 1 }, "geometry": { "type": "Point", "coordinates": [ 57.4983, -20.1605 ] } },
{ "type": "Feature", "properties": { "latitude": -20.1603, "longitude": 57.4972, "location": "Port Louis", "year": 2021, "speech_count": 1 }, "geometry": { "type": "Point", "coordinates": [ 57.4972, -20.1603 ] } },
{ "type": "Feature", "properties": { "latitude": -15.4167, "longitude": 28.2833, "location": "Lusaka", "year": 2021, "speech_count": 1 }, "geometry": { "type": "Point", "coordinates": [ 28.2833, -15.4167 ] } },
{ "type": "Feature", "properties": { "latitude": -6.1751, "longitude": 106.865, "location": "Jakarta", "year": 2021, "speech_count": 1 }, "geometry": { "type": "Point", "coordinates": [ 106.865, -6.1751 ] } },
{ "type": "Feature", "properties": { "latitude": 1.2833, "longitude": 103.8333, "location": "Singapore", "year": 2021, "speech_count": 1 }, "geometry": { "type": "Point", "coordinates": [ 103.8333, 1.2833 ] } },
{ "type": "Feature", "properties": { "latitude": 1.2894, "longitude": 103.85, "location": "Singapore", "year": 2021, "speech_count": 2 }, "geometry": { "type": "Point", "coordinates": [ 103.85, 1.2894 ] } },
{ "type": "Feature", "properties": { "latitude": 1.3521, "longitude": 103.8198, "location": "Singapore", "year": 2021, "speech_count": 1 }, "geometry": { "type": "Point", "coordinates": [ 103.8198, 1.3521 ] } },
{ "type": "Feature", "properties": { "latitude": 3.139, "longitude": 101.6869, "location": "Kuala Lumpur", "year": 2021, "speech_count": 2 }, "geometry": { "type": "Point", "coordinates": [ 101.6869, 3.139 ] } },
{ "type": "Feature", "properties": { "latitude": 3.1408, "longitude": 101.6869, "location": "Kuala Lumpur", "year": 2021, "speech_count": 1 }, "geometry": { "type": "Point", "coordinates": [ 101.6869, 3.1408 ] } },
{ "type": "Feature", "properties": { "latitude": 6.4531, "longitude": 3.3958, "location": "Lagos", "year": 2021, "speech_count": 2 }, "geometry": { "type": "Point", "coordinates": [ 3.3958, 6.4531 ] } },
{ "type": "Feature", "properties": { "latitude": 9.9312, "longitude": 76.2673, "location": "Kochi", "year": 2021, "speech_count": 1 }, "geometry": { "type": "Point", "coordinates": [ 76.2673, 9.9312 ] } },
{ "type": "Feature", "properties": { "latitude": 13.7563, "longitude": 100.5018, "location": "Bangkok", "year": 2021, "speech_count": 3 }, "geometry": { "type": "Point", "coordinates": [ 100.5018, 13.7563 ] } },
{ "type": "Feature", "properties": { "latitude": 14.5833, "longitude": 120.9667, "location": "Manila", "year": 2021, "speech_count": 3 }, "geometry": { "type": "Point", "coordinates": [ 120.9667, 14.5833 ] } },
{ "type": "Feature", "properties": { "latitude": 14.5995, "longitude": 120.9842, "location": "Manila", "year": 2021, "speech_count": 7 }, "geometry": { "type": "Point", "coordinates": [ 120.9842, 14.5995 ] } },
{ "type": "Feature", "properties": { "latitude": 18.975, "longitude": 72.8777, "location": "Bombay", "year": 2021, "speech_count": 1 }, "geometry": { "type": "Point", "coordinates": [ 72.8777, 18.975 ] } },
{ "type": "Feature", "properties": { "latitude": 19.076, "longitude": 72.8777, "location": "Bombay", "year": 2021, "speech_count": 3 }, "geometry": { "type": "Point", "coordinates": [ 72.8777, 19.076 ] } },
{ "type": "Feature", "properties": { "latitude": 22.2855, "longitude": 114.1577, "location": "Hong Kong", "year": 2021, "speech_count": 1 }, "geometry": { "type": "Point", "coordinates": [ 114.1577, 22.2855 ] } },
{ "type": "Feature", "properties": { "latitude": 22.3027, "longitude": 114.1777, "location": "Hong Kong", "year": 2021, "speech_count": 2 }, "geometry": { "type": "Point", "coordinates": [ 114.1777, 22.3027 ] } },
{ "type": "Feature", "properties": { "latitude": 22.3193, "longitude": 114.1694, "location": "Hong Kong", "year": 2021, "speech_count": 1 }, "geometry": { "type": "Point", "coordinates": [ 114.1694, 22.3193 ] } },
{ "type": "Feature", "properties": { "latitude": 22.3964, "longitude": 114.1095, "location": "Hong Kong", "year": 2021, "speech_count": 1 }, "geometry": { "type": "Point", "coordinates": [ 114.1095, 22.3964 ] } },
{ "type": "Feature", "properties": { "latitude": 23.0225, "longitude": 72.5714, "location": "Ahmedabad", "year": 2021, "speech_count": 1 }, "geometry": { "type": "Point", "coordinates": [ 72.5714, 23.0225 ] } },
{ "type": "Feature", "properties": { "latitude": 24.4667, "longitude": 54.3667, "location": "Abu Dhabi", "year": 2021, "speech_count": 1 }, "geometry": { "type": "Point", "coordinates": [ 54.3667, 24.4667 ] } },
{ "type": "Feature", "properties": { "latitude": 25.2048, "longitude": 55.2708, "location": "Dubai", "year": 2021, "speech_count": 1 }, "geometry": { "type": "Point", "coordinates": [ 55.2708, 25.2048 ] } },
{ "type": "Feature", "properties": { "latitude": 28.454, "longitude": 121.42, "location": "Taizhou", "year": 2021, "speech_count": 1 }, "geometry": { "type": "Point", "coordinates": [ 121.42, 28.454 ] } },
{ "type": "Feature", "properties": { "latitude": 28.6139, "longitude": 77.2089, "location": "Delhi", "year": 2021, "speech_count": 2 }, "geometry": { "type": "Point", "coordinates": [ 77.2089, 28.6139 ] } },
{ "type": "Feature", "properties": { "latitude": 28.6139, "longitude": 77.209, "location": "Delhi", "year": 2021, "speech_count": 1 }, "geometry": { "type": "Point", "coordinates": [ 77.209, 28.6139 ] } },
{ "type": "Feature", "properties": { "latitude": 29.5628, "longitude": 106.5515, "location": "Chongqing", "year": 2021, "speech_count": 1 }, "geometry": { "type": "Point", "coordinates": [ 106.5515, 29.5628 ] } },
{ "type": "Feature", "properties": { "latitude": 30.6533, "longitude": -81.4636, "location": "Amelia Island, FL", "year": 2021, "speech_count": 1 }, "geometry": { "type": "Point", "coordinates": [ -81.4636, 30.6533 ] } },
{ "type": "Feature", "properties": { "latitude": 31.1048, "longitude": 77.1734, "location": "Shimla", "year": 2021, "speech_count": 1 }, "geometry": { "type": "Point", "coordinates": [ 77.1734, 31.1048 ] } },
{ "type": "Feature", "properties": { "latitude": 31.9111, "longitude": 131.4236, "location": "Miyazaki", "year": 2021, "speech_count": 1 }, "geometry": { "type": "Point", "coordinates": [ 131.4236, 31.9111 ] } },
{ "type": "Feature", "properties": { "latitude": 32.7357, "longitude": -97.1081, "location": "Arlington", "year": 2021, "speech_count": 1 }, "geometry": { "type": "Point", "coordinates": [ -97.1081, 32.7357 ] } },
{ "type": "Feature", "properties": { "latitude": 32.7456, "longitude": 129.8636, "location": "Nagasaki", "year": 2021, "speech_count": 1 }, "geometry": { "type": "Point", "coordinates": [ 129.8636, 32.7456 ] } },
{ "type": "Feature", "properties": { "latitude": 33.749, "longitude": -84.3879, "location": "Atlanta", "year": 2021, "speech_count": 1 }, "geometry": { "type": "Point", "coordinates": [ -84.3879, 33.749 ] } },
{ "type": "Feature", "properties": { "latitude": 34.0522, "longitude": -118.4014, "location": "Beverly Hills", "year": 2021, "speech_count": 1 }, "geometry": { "type": "Point", "coordinates": [ -118.4014, 34.0522 ] } },
{ "type": "Feature", "properties": { "latitude": 34.0658, "longitude": 134.5594, "location": "Tokushima", "year": 2021, "speech_count": 1 }, "geometry": { "type": "Point", "coordinates": [ 134.5594, 34.0658 ] } },
{ "type": "Feature", "properties": { "latitude": 34.1856, "longitude": 131.4704, "location": "Yamaguchi", "year": 2021, "speech_count": 1 }, "geometry": { "type": "Point", "coordinates": [ 131.4704, 34.1856 ] } },
{ "type": "Feature", "properties": { "latitude": 34.3915, "longitude": 132.4563, "location": "Hiroshima", "year": 2021, "speech_count": 1 }, "geometry": { "type": "Point", "coordinates": [ 132.4563, 34.3915 ] } },
{ "type": "Feature", "properties": { "latitude": 34.6937, "longitude": 135.5022, "location": "Osaka", "year": 2021, "speech_count": 1 }, "geometry": { "type": "Point", "coordinates": [ 135.5022, 34.6937 ] } },
{ "type": "Feature", "properties": { "latitude": 34.9833, "longitude": 138.3831, "location": "Shizuoka", "year": 2021, "speech_count": 1 }, "geometry": { "type": "Point", "coordinates": [ 138.3831, 34.9833 ] } },
{ "type": "Feature", "properties": { "latitude": 35.1814, "longitude": 136.9064, "location": "Nagoya", "year": 2021, "speech_count": 1 }, "geometry": { "type": "Point", "coordinates": [ 136.9064, 35.1814 ] } },
{ "type": "Feature", "properties": { "latitude": 35.4676, "longitude": -97.5164, "location": "Oklahoma City", "year": 2021, "speech_count": 2 }, "geometry": { "type": "Point", "coordinates": [ -97.5164, 35.4676 ] } },
{ "type": "Feature", "properties": { "latitude": 35.6895, "longitude": 139.6917, "location": "Tokyo", "year": 2021, "speech_count": 7 }, "geometry": { "type": "Point", "coordinates": [ 139.6917, 35.6895 ] } },
{ "type": "Feature", "properties": { "latitude": 35.8997, "longitude": 14.5147, "location": "Valletta", "year": 2021, "speech_count": 1 }, "geometry": { "type": "Point", "coordinates": [ 14.5147, 35.8997 ] } },
{ "type": "Feature", "properties": { "latitude": 36.1699, "longitude": -115.1398, "location": "Las Vegas", "year": 2021, "speech_count": 1 }, "geometry": { "type": "Point", "coordinates": [ -115.1398, 36.1699 ] } },
{ "type": "Feature", "properties": { "latitude": 36.3895, "longitude": 139.0603, "location": "Gunma", "year": 2021, "speech_count": 1 }, "geometry": { "type": "Point", "coordinates": [ 139.0603, 36.3895 ] } },
{ "type": "Feature", "properties": { "latitude": 37.4275, "longitude": -122.1697, "location": "Stanford", "year": 2021, "speech_count": 2 }, "geometry": { "type": "Point", "coordinates": [ -122.1697, 37.4275 ] } },
{ "type": "Feature", "properties": { "latitude": 37.5407, "longitude": -77.436, "location": "Richmond", "year": 2021, "speech_count": 1 }, "geometry": { "type": "Point", "coordinates": [ -77.436, 37.5407 ] } },
{ "type": "Feature", "properties": { "latitude": 37.5665, "longitude": 126.978, "location": "Seoul", "year": 2021, "speech_count": 1 }, "geometry": { "type": "Point", "coordinates": [ 126.978, 37.5665 ] } },
{ "type": "Feature", "properties": { "latitude": 37.9211, "longitude": 139.0319, "location": "Niigata", "year": 2021, "speech_count": 1 }, "geometry": { "type": "Point", "coordinates": [ 139.0319, 37.9211 ] } },
{ "type": "Feature", "properties": { "latitude": 38.627, "longitude": -90.1994, "location": "St. Louis", "year": 2021, "speech_count": 1 }, "geometry": { "type": "Point", "coordinates": [ -90.1994, 38.627 ] } },
{ "type": "Feature", "properties": { "latitude": 38.7167, "longitude": -9.1333, "location": "Lisbon", "year": 2021, "speech_count": 1 }, "geometry": { "type": "Point", "coordinates": [ -9.1333, 38.7167 ] } },
{ "type": "Feature", "properties": { "latitude": 38.7223, "longitude": -9.1393, "location": "Lisbon", "year": 2021, "speech_count": 3 }, "geometry": { "type": "Point", "coordinates": [ -9.1393, 38.7223 ] } },
{ "type": "Feature", "properties": { "latitude": 38.8951, "longitude": -77.0364, "location": "Washington", "year": 2021, "speech_count": 28 }, "geometry": { "type": "Point", "coordinates": [ -77.0364, 38.8951 ] } },
{ "type": "Feature", "properties": { "latitude": 39.1936, "longitude": -106.8203, "location": "Aspen", "year": 2021, "speech_count": 1 }, "geometry": { "type": "Point", "coordinates": [ -106.8203, 39.1936 ] } },
{ "type": "Feature", "properties": { "latitude": 39.7392, "longitude": -104.9903, "location": "Denver", "year": 2021, "speech_count": 1 }, "geometry": { "type": "Point", "coordinates": [ -104.9903, 39.7392 ] } },
{ "type": "Feature", "properties": { "latitude": 39.9526, "longitude": -75.1652, "location": "Philadelphia", "year": 2021, "speech_count": 1 }, "geometry": { "type": "Point", "coordinates": [ -75.1652, 39.9526 ] } },
{ "type": "Feature", "properties": { "latitude": 40.4168, "longitude": -3.7038, "location": "Madrid", "year": 2021, "speech_count": 9 }, "geometry": { "type": "Point", "coordinates": [ -3.7038, 40.4168 ] } },
{ "type": "Feature", "properties": { "latitude": 40.7127, "longitude": -74.0059, "location": "New York", "year": 2021, "speech_count": 2 }, "geometry": { "type": "Point", "coordinates": [ -74.0059, 40.7127 ] } },
{ "type": "Feature", "properties": { "latitude": 40.7128, "longitude": -74.006, "location": "New York", "year": 2021, "speech_count": 3 }, "geometry": { "type": "Point", "coordinates": [ -74.006, 40.7128 ] } },
{ "type": "Feature", "properties": { "latitude": 40.7128, "longitude": -74.0059, "location": "New York", "year": 2021, "speech_count": 6 }, "geometry": { "type": "Point", "coordinates": [ -74.0059, 40.7128 ] } },
{ "type": "Feature", "properties": { "latitude": 41.1132, "longitude": 20.7984, "location": "Ohrid", "year": 2021, "speech_count": 1 }, "geometry": { "type": "Point", "coordinates": [ 20.7984, 41.1132 ] } },
{ "type": "Feature", "properties": { "latitude": 41.1133, "longitude": 20.7825, "location": "Ohrid", "year": 2021, "speech_count": 1 }, "geometry": { "type": "Point", "coordinates": [ 20.7825, 41.1133 ] } },
{ "type": "Feature", "properties": { "latitude": 41.3275, "longitude": 19.8187, "location": "Tirana", "year": 2021, "speech_count": 3 }, "geometry": { "type": "Point", "coordinates": [ 19.8187, 41.3275 ] } },
{ "type": "Feature", "properties": { "latitude": 41.3275, "longitude": 19.8189, "location": "Tirana", "year": 2021, "speech_count": 3 }, "geometry": { "type": "Point", "coordinates": [ 19.8189, 41.3275 ] } },
{ "type": "Feature", "properties": { "latitude": 41.3851, "longitude": 2.1734, "location": "Barcelona", "year": 2021, "speech_count": 1 }, "geometry": { "type": "Point", "coordinates": [ 2.1734, 41.3851 ] } },
{ "type": "Feature", "properties": { "latitude": 41.4995, "longitude": -81.6954, "location": "Cleveland", "year": 2021, "speech_count": 1 }, "geometry": { "type": "Point", "coordinates": [ -81.6954, 41.4995 ] } },
{ "type": "Feature", "properties": { "latitude": 41.6563, "longitude": -0.8761, "location": "Zaragoza", "year": 2021, "speech_count": 1 }, "geometry": { "type": "Point", "coordinates": [ -0.8761, 41.6563 ] } },
{ "type": "Feature", "properties": { "latitude": 41.8819, "longitude": -87.6236, "location": "Chicago", "year": 2021, "speech_count": 1 }, "geometry": { "type": "Point", "coordinates": [ -87.6236, 41.8819 ] } },
{ "type": "Feature", "properties": { "latitude": 41.8902, "longitude": 12.4922, "location": "Rome", "year": 2021, "speech_count": 1 }, "geometry": { "type": "Point", "coordinates": [ 12.4922, 41.8902 ] } },
{ "type": "Feature", "properties": { "latitude": 41.8902, "longitude": 12.4923, "location": "Rome", "year": 2021, "speech_count": 10 }, "geometry": { "type": "Point", "coordinates": [ 12.4923, 41.8902 ] } },
{ "type": "Feature", "properties": { "latitude": 41.9973, "longitude": 21.4275, "location": "Skopje", "year": 2021, "speech_count": 1 }, "geometry": { "type": "Point", "coordinates": [ 21.4275, 41.9973 ] } },
{ "type": "Feature", "properties": { "latitude": 41.9974, "longitude": 21.4278, "location": "Skopje", "year": 2021, "speech_count": 1 }, "geometry": { "type": "Point", "coordinates": [ 21.4278, 41.9974 ] } },
{ "type": "Feature", "properties": { "latitude": 42.0, "longitude": 21.4333, "location": "Skopje", "year": 2021, "speech_count": 1 }, "geometry": { "type": "Point", "coordinates": [ 21.4333, 42.0 ] } },
{ "type": "Feature", "properties": { "latitude": 42.3601, "longitude": -71.0589, "location": "Boston", "year": 2021, "speech_count": 2 }, "geometry": { "type": "Point", "coordinates": [ -71.0589, 42.3601 ] } },
{ "type": "Feature", "properties": { "latitude": 42.3736, "longitude": -71.1097, "location": "Cambridge", "year": 2021, "speech_count": 1 }, "geometry": { "type": "Point", "coordinates": [ -71.1097, 42.3736 ] } },
{ "type": "Feature", "properties": { "latitude": 42.6628, "longitude": 21.1651, "location": "Pristina", "year": 2021, "speech_count": 1 }, "geometry": { "type": "Point", "coordinates": [ 21.1651, 42.6628 ] } },
{ "type": "Feature", "properties": { "latitude": 42.6629, "longitude": 21.1653, "location": "Pristina", "year": 2021, "speech_count": 1 }, "geometry": { "type": "Point", "coordinates": [ 21.1653, 42.6629 ] } },
{ "type": "Feature", "properties": { "latitude": 42.6629, "longitude": 21.1655, "location": "Pristina", "year": 2021, "speech_count": 1 }, "geometry": { "type": "Point", "coordinates": [ 21.1655, 42.6629 ] } },
{ "type": "Feature", "properties": { "latitude": 42.6977, "longitude": 23.3219, "location": "Sofia", "year": 2021, "speech_count": 1 }, "geometry": { "type": "Point", "coordinates": [ 23.3219, 42.6977 ] } },
{ "type": "Feature", "properties": { "latitude": 43.5826, "longitude": -110.8015, "location": "Jackson Hole", "year": 2021, "speech_count": 1 }, "geometry": { "type": "Point", "coordinates": [ -110.8015, 43.5826 ] } },
{ "type": "Feature", "properties": { "latitude": 43.6532, "longitude": -79.3832, "location": "Toronto", "year": 2021, "speech_count": 3 }, "geometry": { "type": "Point", "coordinates": [ -79.3832, 43.6532 ] } },
{ "type": "Feature", "properties": { "latitude": 43.6589, "longitude": -114.3444, "location": "Sun Valley", "year": 2021, "speech_count": 1 }, "geometry": { "type": "Point", "coordinates": [ -114.3444, 43.6589 ] } },
{ "type": "Feature", "properties": { "latitude": 43.7696, "longitude": 11.2558, "location": "Florence", "year": 2021, "speech_count": 1 }, "geometry": { "type": "Point", "coordinates": [ 11.2558, 43.7696 ] } },
{ "type": "Feature", "properties": { "latitude": 44.3191, "longitude": -96.7964, "location": "Brookings", "year": 2021, "speech_count": 1 }, "geometry": { "type": "Point", "coordinates": [ -96.7964, 44.3191 ] } },
{ "type": "Feature", "properties": { "latitude": 44.4322, "longitude": 26.1063, "location": "Bucharest", "year": 2021, "speech_count": 1 }, "geometry": { "type": "Point", "coordinates": [ 26.1063, 44.4322 ] } },
{ "type": "Feature", "properties": { "latitude": 44.6488, "longitude": -63.5752, "location": "Halifax", "year": 2021, "speech_count": 1 }, "geometry": { "type": "Point", "coordinates": [ -63.5752, 44.6488 ] } },
{ "type": "Feature", "properties": { "latitude": 44.8017, "longitude": 10.3272, "location": "Parma", "year": 2021, "speech_count": 1 }, "geometry": { "type": "Point", "coordinates": [ 10.3272, 44.8017 ] } },
{ "type": "Feature", "properties": { "latitude": 44.8186, "longitude": 20.4681, "location": "Belgrade", "year": 2021, "speech_count": 6 }, "geometry": { "type": "Point", "coordinates": [ 20.4681, 44.8186 ] } },
{ "type": "Feature", "properties": { "latitude": 44.8186, "longitude": 20.4689, "location": "Belgrade", "year": 2021, "speech_count": 1 }, "geometry": { "type": "Point", "coordinates": [ 20.4689, 44.8186 ] } },
{ "type": "Feature", "properties": { "latitude": 45.4215, "longitude": -75.6972, "location": "Ottawa", "year": 2021, "speech_count": 5 }, "geometry": { "type": "Point", "coordinates": [ -75.6972, 45.4215 ] } },
{ "type": "Feature", "properties": { "latitude": 45.434, "longitude": 12.335, "location": "Venice", "year": 2021, "speech_count": 1 }, "geometry": { "type": "Point", "coordinates": [ 12.335, 45.434 ] } },
{ "type": "Feature", "properties": { "latitude": 45.4408, "longitude": 12.3155, "location": "Venice", "year": 2021, "speech_count": 2 }, "geometry": { "type": "Point", "coordinates": [ 12.3155, 45.4408 ] } },
{ "type": "Feature", "properties": { "latitude": 45.4642, "longitude": 9.1895, "location": "Milan", "year": 2021, "speech_count": 2 }, "geometry": { "type": "Point", "coordinates": [ 9.1895, 45.4642 ] } },
{ "type": "Feature", "properties": { "latitude": 45.5017, "longitude": -73.5673, "location": "Montréal", "year": 2021, "speech_count": 1 }, "geometry": { "type": "Point", "coordinates": [ -73.5673, 45.5017 ] } },
{ "type": "Feature", "properties": { "latitude": 45.5088, "longitude": -73.554, "location": "Montréal", "year": 2021, "speech_count": 1 }, "geometry": { "type": "Point", "coordinates": [ -73.554, 45.5088 ] } },
{ "type": "Feature", "properties": { "latitude": 46.0514, "longitude": 14.506, "location": "Ljubljana", "year": 2021, "speech_count": 1 }, "geometry": { "type": "Point", "coordinates": [ 14.506, 46.0514 ] } },
{ "type": "Feature", "properties": { "latitude": 46.0569, "longitude": 14.5058, "location": "Ljubljana", "year": 2021, "speech_count": 1 }, "geometry": { "type": "Point", "coordinates": [ 14.5058, 46.0569 ] } },
{ "type": "Feature", "properties": { "latitude": 47.0506, "longitude": 8.3099, "location": "Lucerne", "year": 2021, "speech_count": 1 }, "geometry": { "type": "Point", "coordinates": [ 8.3099, 47.0506 ] } },
{ "type": "Feature", "properties": { "latitude": 47.3769, "longitude": 8.5417, "location": "Zurich", "year": 2021, "speech_count": 5 }, "geometry": { "type": "Point", "coordinates": [ 8.5417, 47.3769 ] } },
{ "type": "Feature", "properties": { "latitude": 47.5596, "longitude": 7.5898, "location": "Basel", "year": 2021, "speech_count": 2 }, "geometry": { "type": "Point", "coordinates": [ 7.5898, 47.5596 ] } },
{ "type": "Feature", "properties": { "latitude": 47.7984, "longitude": 13.0451, "location": "Salzburg", "year": 2021, "speech_count": 1 }, "geometry": { "type": "Point", "coordinates": [ 13.0451, 47.7984 ] } },
{ "type": "Feature", "properties": { "latitude": 48.2082, "longitude": 16.3738, "location": "Vienna", "year": 2021, "speech_count": 2 }, "geometry": { "type": "Point", "coordinates": [ 16.3738, 48.2082 ] } },
{ "type": "Feature", "properties": { "latitude": 48.5834, "longitude": 7.7489, "location": "Strasbourg", "year": 2021, "speech_count": 2 }, "geometry": { "type": "Point", "coordinates": [ 7.7489, 48.5834 ] } },
{ "type": "Feature", "properties": { "latitude": 48.8566, "longitude": 2.3522, "location": "Paris", "year": 2021, "speech_count": 7 }, "geometry": { "type": "Point", "coordinates": [ 2.3522, 48.8566 ] } },
{ "type": "Feature", "properties": { "latitude": 48.8582, "longitude": 2.2945, "location": "Paris", "year": 2021, "speech_count": 3 }, "geometry": { "type": "Point", "coordinates": [ 2.2945, 48.8582 ] } },
{ "type": "Feature", "properties": { "latitude": 48.8589, "longitude": 2.2945, "location": "Paris", "year": 2021, "speech_count": 2 }, "geometry": { "type": "Point", "coordinates": [ 2.2945, 48.8589 ] } },
{ "type": "Feature", "properties": { "latitude": 50.1109, "longitude": 8.6821, "location": "Frankfurt", "year": 2021, "speech_count": 45 }, "geometry": { "type": "Point", "coordinates": [ 8.6821, 50.1109 ] } },
{ "type": "Feature", "properties": { "latitude": 50.8465, "longitude": 4.3517, "location": "Brussels", "year": 2021, "speech_count": 2 }, "geometry": { "type": "Point", "coordinates": [ 4.3517, 50.8465 ] } },
{ "type": "Feature", "properties": { "latitude": 51.392, "longitude": -0.2912, "location": "Surrey", "year": 2021, "speech_count": 1 }, "geometry": { "type": "Point", "coordinates": [ -0.2912, 51.392 ] } },
{ "type": "Feature", "properties": { "latitude": 51.5074, "longitude": -0.1278, "location": "London", "year": 2021, "speech_count": 13 }, "geometry": { "type": "Point", "coordinates": [ -0.1278, 51.5074 ] } },
{ "type": "Feature", "properties": { "latitude": 51.7522, "longitude": -1.255, "location": "Oxford", "year": 2021, "speech_count": 1 }, "geometry": { "type": "Point", "coordinates": [ -1.255, 51.7522 ] } },
{ "type": "Feature", "properties": { "latitude": 51.9244, "longitude": 4.4795, "location": "Rotterdam", "year": 2021, "speech_count": 1 }, "geometry": { "type": "Point", "coordinates": [ 4.4795, 51.9244 ] } },
{ "type": "Feature", "properties": { "latitude": 52.4895, "longitude": -1.9043, "location": "Birmingham", "year": 2021, "speech_count": 1 }, "geometry": { "type": "Point", "coordinates": [ -1.9043, 52.4895 ] } },
{ "type": "Feature", "properties": { "latitude": 52.6619, "longitude": -8.6244, "location": "Limerick", "year": 2021, "speech_count": 1 }, "geometry": { "type": "Point", "coordinates": [ -8.6244, 52.6619 ] } },
{ "type": "Feature", "properties": { "latitude": 53.2707, "longitude": -9.0568, "location": "Galway", "year": 2021, "speech_count": 1 }, "geometry": { "type": "Point", "coordinates": [ -9.0568, 53.2707 ] } },
{ "type": "Feature", "properties": { "latitude": 53.3498, "longitude": -6.2603, "location": "Dublin", "year": 2021, "speech_count": 3 }, "geometry": { "type": "Point", "coordinates": [ -6.2603, 53.3498 ] } },
{ "type": "Feature", "properties": { "latitude": 53.7998, "longitude": -1.5492, "location": "Leeds", "year": 2021, "speech_count": 1 }, "geometry": { "type": "Point", "coordinates": [ -1.5492, 53.7998 ] } },
{ "type": "Feature", "properties": { "latitude": 54.6896, "longitude": 25.2799, "location": "Vilnius", "year": 2021, "speech_count": 4 }, "geometry": { "type": "Point", "coordinates": [ 25.2799, 54.6896 ] } },
{ "type": "Feature", "properties": { "latitude": 55.7522, "longitude": 37.6155, "location": "Moscow", "year": 2021, "speech_count": 1 }, "geometry": { "type": "Point", "coordinates": [ 37.6155, 55.7522 ] } },
{ "type": "Feature", "properties": { "latitude": 55.7558, "longitude": 37.6173, "location": "Moscow", "year": 2021, "speech_count": 9 }, "geometry": { "type": "Point", "coordinates": [ 37.6173, 55.7558 ] } },
{ "type": "Feature", "properties": { "latitude": 59.3293, "longitude": 18.0686, "location": "Stockholm", "year": 2021, "speech_count": 1 }, "geometry": { "type": "Point", "coordinates": [ 18.0686, 59.3293 ] } },
{ "type": "Feature", "properties": { "latitude": 59.9138, "longitude": 10.7522, "location": "Oslo", "year": 2021, "speech_count": 2 }, "geometry": { "type": "Point", "coordinates": [ 10.7522, 59.9138 ] } },
{ "type": "Feature", "properties": { "latitude": 59.9139, "longitude": 10.7522, "location": "Oslo", "year": 2021, "speech_count": 3 }, "geometry": { "type": "Point", "coordinates": [ 10.7522, 59.9139 ] } },
{ "type": "Feature", "properties": { "latitude": 60.1699, "longitude": 24.9384, "location": "Helsinki", "year": 2021, "speech_count": 4 }, "geometry": { "type": "Point", "coordinates": [ 24.9384, 60.1699 ] } }
]
}
