{
"type": "FeatureCollection",
"name": "speeches_2008",
"crs": { "type": "name", "properties": { "name": "urn:ogc:def:crs:OGC:1.3:CRS84" } },
"features": [
{ "type": "Feature", "properties": { "latitude": -43.5321, "longitude": 172.6362, "location": "Christchurch", "year": 2008, "speech_count": 1 }, "geometry": { "type": "Point", "coordinates": [ 172.6362, -43.5321 ] } },
{ "type": "Feature", "properties": { "latitude": -41.2865, "longitude": 174.7762, "location": "Wellington", "year": 2008, "speech_count": 1 }, "geometry": { "type": "Point", "coordinates": [ 174.7762, -41.2865 ] } },
{ "type": "Feature", "properties": { "latitude": -37.8142, "longitude": 144.9631, "location": "Melbourne", "year": 2008, "speech_count": 2 }, "geometry": { "type": "Point", "coordinates": [ 144.9631, -37.8142 ] } },
{ "type": "Feature", "properties": { "latitude": -37.8136, "longitude": 144.9631, "location": "Melbourne", "year": 2008, "speech_count": 2 }, "geometry": { "type": "Point", "coordinates": [ 144.9631, -37.8136 ] } },
{ "type": "Feature", "properties": { "latitude": -36.8485, "longitude": 174.7633, "location": "Auckland", "year": 2008, "speech_count": 1 }, "geometry": { "type": "Point", "coordinates": [ 174.7633, -36.8485 ] } },
{ "type": "Feature", "properties": { "latitude": -36.7563, "longitude": 144.2836, "location": "Bendigo", "year": 2008, "speech_count": 1 }, "geometry": { "type": "Point", "coordinates": [ 144.2836, -36.7563 ] } },
{ "type": "Feature", "properties": { "latitude": -35.2809, "longitude": 149.13, "location": "Canberra", "year": 2008, "speech_count": 2 }, "geometry": { "type": "Point", "coordinates": [ 149.13, -35.2809 ] } },
{ "type": "Feature", "properties": { "latitude": -34.6037, "longitude": -58.3692, "location": "Buenos Aires", "year": 2008, "speech_count": 10 }, "geometry": { "type": "Point", "coordinates": [ -58.3692, -34.6037 ] } },
{ "type": "Feature", "properties": { "latitude": -33.9333, "longitude": 18.8667, "location": "Stellenbosch", "year": 2008, "speech_count": 1 }, "geometry": { "type": "Point", "coordinates": [ 18.8667, -33.9333 ] } },
{ "type": "Feature", "properties": { "latitude": -33.9258, "longitude": 18.4232, "location": "Cape Town", "year": 2008, "speech_count": 1 }, "geometry": { "type": "Point", "coordinates": [ 18.4232, -33.9258 ] } },
{ "type": "Feature", "properties": { "latitude": -33.8688, "longitude": 151.2093, "location": "Sydney", "year": 2008, "speech_count": 9 }, "geometry": { "type": "Point", "coordinates": [ 151.2093, -33.8688 ] } },
{ "type": "Feature", "properties": { "latitude": -33.8679, "longitude": 151.2073, "location": "Sydney", "year": 2008, "speech_count": 1 }, "geometry": { "type": "Point", "coordinates": [ 151.2073, -33.8679 ] } },
{ "type": "Feature", "properties": { "latitude": -33.8599, "longitude": 151.2111, "location": "Saint Julian's", "year": 2008, "speech_count": 1 }, "geometry": { "type": "Point", "coordinates": [ 151.2111, -33.8599 ] } },
{ "type": "Feature", "properties": { "latitude": -33.4489, "longitude": -70.6693, "location": "Santiago", "year": 2008, "speech_count": 9 }, "geometry": { "type": "Point", "coordinates": [ -70.6693, -33.4489 ] } },
{ "type": "Feature", "properties": { "latitude": -26.2052, "longitude": 28.0497, "location": "Johannesburg", "year": 2008, "speech_count": 1 }, "geometry": { "type": "Point", "coordinates": [ 28.0497, -26.2052 ] } },
{ "type": "Feature", "properties": { "latitude": -26.205, "longitude": 28.0497, "location": "Johannesburg", "year": 2008, "speech_count": 1 }, "geometry": { "type": "Point", "coordinates": [ 28.0497, -26.205 ] } },
{ "type": "Feature", "properties": { "latitude": -26.2041, "longitude": 28.0473, "location": "Johannesburg", "year": 2008, "speech_count": 2 }, "geometry": { "type": "Point", "coordinates": [ 28.0473, -26.2041 ] } },
{ "type": "Feature", "properties": { "latitude": -25.7461, "longitude": 28.1881, "location": "Pretoria", "year": 2008, "speech_count": 2 }, "geometry": { "type": "Point", "coordinates": [ 28.1881, -25.7461 ] } },
{ "type": "Feature", "properties": { "latitude": -25.7461, "longitude": 28.1889, "location": "Pretoria", "year": 2008, "speech_count": 1 }, "geometry": { "type": "Point", "coordinates": [ 28.1889, -25.7461 ] } },
{ "type": "Feature", "properties": { "latitude": -24.6581, "longitude": 25.9122, "location": "Gaborone", "year": 2008, "speech_count": 1 }, "geometry": { "type": "Point", "coordinates": [ 25.9122, -24.6581 ] } },
{ "type": "Feature", "properties": { "latitude": -24.6509, "longitude": 25.9122, "location": "Gaborone", "year": 2008, "speech_count": 1 }, "geometry": { "type": "Point", "coordinates": [ 25.9122, -24.6509 ] } },
{ "type": "Feature", "properties": { "latitude": -23.5505, "longitude": -46.6333, "location": "Sao Paulo", "year": 2008, "speech_count": 2 }, "geometry": { "type": "Point", "coordinates": [ -46.6333, -23.5505 ] } },
{ "type": "Feature", "properties": { "latitude": -23.5475, "longitude": -46.6361, "location": "Sao Paulo", "year": 2008, "speech_count": 2 }, "geometry": { "type": "Point", "coordinates": [ -46.6361, -23.5475 ] } },
{ "type": "Feature", "properties": { "latitude": -22.5749, "longitude": 17.0806, "location": "Windhoek", "year": 2008, "speech_count": 1 }, "geometry": { "type": "Point", "coordinates": [ 17.0806, -22.5749 ] } },
{ "type": "Feature", "properties": { "latitude": -22.5708, "longitude": 17.0837, "location": "Windhoek", "year": 2008, "speech_count": 1 }, "geometry": { "type": "Point", "coordinates": [ 17.0837, -22.5708 ] } },
{ "type": "Feature", "properties": { "latitude": -22.57, "longitude": 17.0836, "location": "Windhoek", "year": 2008, "speech_count": 1 }, "geometry": { "type": "Point", "coordinates": [ 17.0836, -22.57 ] } },
{ "type": "Feature", "properties": { "latitude": -20.1654, "longitude": 57.4998, "location": "Port Louis", "year": 2008, "speech_count": 1 }, "geometry": { "type": "Point", "coordinates": [ 57.4998, -20.1654 ] } },
{ "type": "Feature", "properties": { "latitude": -20.1609, "longitude": 57.4978, "location": "Port Louis", "year": 2008, "speech_count": 1 }, "geometry": { "type": "Point", "coordinates": [ 57.4978, -20.1609 ] } },
{ "type": "Feature", "properties": { "latitude": -20.1606, "longitude": 57.4979, "location": "Port Louis", "year": 2008, "speech_count": 2 }, "geometry": { "type": "Point", "coordinates": [ 57.4979, -20.1606 ] } },
{ "type": "Feature", "properties": { "latitude": -20.1606, "longitude": 57.4983, "location": "Port Louis", "year": 2008, "speech_count": 1 }, "geometry": { "type": "Point", "coordinates": [ 57.4983, -20.1606 ] } },
{ "type": "Feature", "properties": { "latitude": -20.1606, "longitude": 57.5005, "location": "Port Louis", "year": 2008, "speech_count": 1 }, "geometry": { "type": "Point", "coordinates": [ 57.5005, -20.1606 ] } },
{ "type": "Feature", "properties": { "latitude": -18.1423, "longitude": 178.4419, "location": "Suva", "year": 2008, "speech_count": 1 }, "geometry": { "type": "Point", "coordinates": [ 178.4419, -18.1423 ] } },
{ "type": "Feature", "properties": { "latitude": -18.1416, "longitude": 178.4419, "location": "Nasese", "year": 2008, "speech_count": 1 }, "geometry": { "type": "Point", "coordinates": [ 178.4419, -18.1416 ] } },
{ "type": "Feature", "properties": { "latitude": -18.1416, "longitude": 178.4419, "location": "Suva", "year": 2008, "speech_count": 7 }, "geometry": { "type": "Point", "coordinates": [ 178.4419, -18.1416 ] } },
{ "type": "Feature", "properties": { "latitude": -18.1333, "longitude": 178.4333, "location": "Suva", "year": 2008, "speech_count": 1 }, "geometry": { "type": "Point", "coordinates": [ 178.4333, -18.1333 ] } },
{ "type": "Feature", "properties": { "latitude": -17.8578, "longitude": 25.8628, "location": "Livingstone", "year": 2008, "speech_count": 1 }, "geometry": { "type": "Point", "coordinates": [ 25.8628, -17.8578 ] } },
{ "type": "Feature", "properties": { "latitude": -17.8578, "longitude": 25.8636, "location": "Livingstone", "year": 2008, "speech_count": 1 }, "geometry": { "type": "Point", "coordinates": [ 25.8636, -17.8578 ] } },
{ "type": "Feature", "properties": { "latitude": -17.8578, "longitude": 25.8667, "location": "Livingstone", "year": 2008, "speech_count": 2 }, "geometry": { "type": "Point", "coordinates": [ 25.8667, -17.8578 ] } },
{ "type": "Feature", "properties": { "latitude": -17.85, "longitude": 25.85, "location": "Livingstone", "year": 2008, "speech_count": 1 }, "geometry": { "type": "Point", "coordinates": [ 25.85, -17.85 ] } },
{ "type": "Feature", "properties": { "latitude": -17.7639, "longitude": 177.4503, "location": "Nadi", "year": 2008, "speech_count": 1 }, "geometry": { "type": "Point", "coordinates": [ 177.4503, -17.7639 ] } },
{ "type": "Feature", "properties": { "latitude": -17.7539, "longitude": 177.4333, "location": "Nadi", "year": 2008, "speech_count": 1 }, "geometry": { "type": "Point", "coordinates": [ 177.4333, -17.7539 ] } },
{ "type": "Feature", "properties": { "latitude": -17.7539, "longitude": 177.4366, "location": "Nadi", "year": 2008, "speech_count": 1 }, "geometry": { "type": "Point", "coordinates": [ 177.4366, -17.7539 ] } },
{ "type": "Feature", "properties": { "latitude": -17.7538, "longitude": 177.4333, "location": "Nadi", "year": 2008, "speech_count": 1 }, "geometry": { "type": "Point", "coordinates": [ 177.4333, -17.7538 ] } },
{ "type": "Feature", "properties": { "latitude": -15.4167, "longitude": 28.2833, "location": "Chilenje", "year": 2008, "speech_count": 1 }, "geometry": { "type": "Point", "coordinates": [ 28.2833, -15.4167 ] } },
{ "type": "Feature", "properties": { "latitude": -15.4167, "longitude": 28.2833, "location": "Lusaka", "year": 2008, "speech_count": 15 }, "geometry": { "type": "Point", "coordinates": [ 28.2833, -15.4167 ] } },
{ "type": "Feature", "properties": { "latitude": -13.9833, "longitude": 33.7833, "location": "Lilongwe", "year": 2008, "speech_count": 2 }, "geometry": { "type": "Point", "coordinates": [ 33.7833, -13.9833 ] } },
{ "type": "Feature", "properties": { "latitude": -13.6109, "longitude": 32.6169, "location": "Chipata", "year": 2008, "speech_count": 1 }, "geometry": { "type": "Point", "coordinates": [ 32.6169, -13.6109 ] } },
{ "type": "Feature", "properties": { "latitude": -12.1667, "longitude": 26.4167, "location": "Solwezi", "year": 2008, "speech_count": 1 }, "geometry": { "type": "Point", "coordinates": [ 26.4167, -12.1667 ] } },
{ "type": "Feature", "properties": { "latitude": -11.4622, "longitude": 34.0199, "location": "Mzuzu", "year": 2008, "speech_count": 1 }, "geometry": { "type": "Point", "coordinates": [ 34.0199, -11.4622 ] } },
{ "type": "Feature", "properties": { "latitude": -9.4639, "longitude": 147.1965, "location": "Boroko", "year": 2008, "speech_count": 1 }, "geometry": { "type": "Point", "coordinates": [ 147.1965, -9.4639 ] } },
{ "type": "Feature", "properties": { "latitude": -9.4456, "longitude": 147.1764, "location": "Port Moresby", "year": 2008, "speech_count": 1 }, "geometry": { "type": "Point", "coordinates": [ 147.1764, -9.4456 ] } },
{ "type": "Feature", "properties": { "latitude": -9.445, "longitude": 147.1812, "location": "Port Moresby", "year": 2008, "speech_count": 1 }, "geometry": { "type": "Point", "coordinates": [ 147.1812, -9.445 ] } },
{ "type": "Feature", "properties": { "latitude": -9.4439, "longitude": 147.1962, "location": "Port Moresby", "year": 2008, "speech_count": 2 }, "geometry": { "type": "Point", "coordinates": [ 147.1962, -9.4439 ] } },
{ "type": "Feature", "properties": { "latitude": -9.4333, "longitude": 159.95, "location": "Honiara", "year": 2008, "speech_count": 1 }, "geometry": { "type": "Point", "coordinates": [ 159.95, -9.4333 ] } },
{ "type": "Feature", "properties": { "latitude": -8.7489, "longitude": 115.1686, "location": "Nusa Dua, Bali", "year": 2008, "speech_count": 2 }, "geometry": { "type": "Point", "coordinates": [ 115.1686, -8.7489 ] } },
{ "type": "Feature", "properties": { "latitude": -8.3776, "longitude": 115.1644, "location": "Bali", "year": 2008, "speech_count": 1 }, "geometry": { "type": "Point", "coordinates": [ 115.1644, -8.3776 ] } },
{ "type": "Feature", "properties": { "latitude": -6.1751, "longitude": 106.865, "location": "Jakarta", "year": 2008, "speech_count": 1 }, "geometry": { "type": "Point", "coordinates": [ 106.865, -6.1751 ] } },
{ "type": "Feature", "properties": { "latitude": -6.1638, "longitude": 39.2047, "location": "Zanzibar", "year": 2008, "speech_count": 1 }, "geometry": { "type": "Point", "coordinates": [ 39.2047, -6.1638 ] } },
{ "type": "Feature", "properties": { "latitude": -4.0576, "longitude": 39.6667, "location": "Mombasa", "year": 2008, "speech_count": 1 }, "geometry": { "type": "Point", "coordinates": [ 39.6667, -4.0576 ] } },
{ "type": "Feature", "properties": { "latitude": -1.2921, "longitude": 36.8219, "location": "Nairobi", "year": 2008, "speech_count": 5 }, "geometry": { "type": "Point", "coordinates": [ 36.8219, -1.2921 ] } },
{ "type": "Feature", "properties": { "latitude": -1.2833, "longitude": 36.8167, "location": "Nairobi", "year": 2008, "speech_count": 1 }, "geometry": { "type": "Point", "coordinates": [ 36.8167, -1.2833 ] } },
{ "type": "Feature", "properties": { "latitude": 0.0018, "longitude": 30.0403, "location": "Katwe", "year": 2008, "speech_count": 1 }, "geometry": { "type": "Point", "coordinates": [ 30.0403, 0.0018 ] } },
{ "type": "Feature", "properties": { "latitude": 0.0669, "longitude": 32.4794, "location": "Entebbe", "year": 2008, "speech_count": 1 }, "geometry": { "type": "Point", "coordinates": [ 32.4794, 0.0669 ] } },
{ "type": "Feature", "properties": { "latitude": 0.3136, "longitude": 32.5825, "location": "Kampala", "year": 2008, "speech_count": 1 }, "geometry": { "type": "Point", "coordinates": [ 32.5825, 0.3136 ] } },
{ "type": "Feature", "properties": { "latitude": 0.3156, "longitude": 32.5825, "location": "Kampala", "year": 2008, "speech_count": 2 }, "geometry": { "type": "Point", "coordinates": [ 32.5825, 0.3156 ] } },
{ "type": "Feature", "properties": { "latitude": 0.3157, "longitude": 32.5603, "location": "Kampala", "year": 2008, "speech_count": 1 }, "geometry": { "type": "Point", "coordinates": [ 32.5603, 0.3157 ] } },
{ "type": "Feature", "properties": { "latitude": 0.3157, "longitude": 32.5648, "location": "Kampala", "year": 2008, "speech_count": 1 }, "geometry": { "type": "Point", "coordinates": [ 32.5648, 0.3157 ] } },
{ "type": "Feature", "properties": { "latitude": 1.2833, "longitude": 103.8331, "location": "Singapore", "year": 2008, "speech_count": 3 }, "geometry": { "type": "Point", "coordinates": [ 103.8331, 1.2833 ] } },
{ "type": "Feature", "properties": { "latitude": 1.2894, "longitude": 103.85, "location": "Singapore", "year": 2008, "speech_count": 2 }, "geometry": { "type": "Point", "coordinates": [ 103.85, 1.2894 ] } },
{ "type": "Feature", "properties": { "latitude": 1.2902, "longitude": 103.8519, "location": "Singapore", "year": 2008, "speech_count": 1 }, "geometry": { "type": "Point", "coordinates": [ 103.8519, 1.2902 ] } },
{ "type": "Feature", "properties": { "latitude": 1.3521, "longitude": 103.8198, "location": "Singapore", "year": 2008, "speech_count": 5 }, "geometry": { "type": "Point", "coordinates": [ 103.8198, 1.3521 ] } },
{ "type": "Feature", "properties": { "latitude": 2.9215, "longitude": 101.6544, "location": "Cyberjaya", "year": 2008, "speech_count": 1 }, "geometry": { "type": "Point", "coordinates": [ 101.6544, 2.9215 ] } },
{ "type": "Feature", "properties": { "latitude": 3.1023, "longitude": 101.6475, "location": "Petaling Jaya, Selangor", "year": 2008, "speech_count": 1 }, "geometry": { "type": "Point", "coordinates": [ 101.6475, 3.1023 ] } },
{ "type": "Feature", "properties": { "latitude": 3.139, "longitude": 101.6869, "location": "Kuala Lumpur", "year": 2008, "speech_count": 6 }, "geometry": { "type": "Point", "coordinates": [ 101.6869, 3.139 ] } },
{ "type": "Feature", "properties": { "latitude": 3.1408, "longitude": 101.6865, "location": "Kuala Lumpur", "year": 2008, "speech_count": 1 }, "geometry": { "type": "Point", "coordinates": [ 101.6865, 3.1408 ] } },
{ "type": "Feature", "properties": { "latitude": 3.1408, "longitude": 101.6869, "location": "Kuala Lumpur", "year": 2008, "speech_count": 2 }, "geometry": { "type": "Point", "coordinates": [ 101.6869, 3.1408 ] } },
{ "type": "Feature", "properties": { "latitude": 3.1408, "longitude": 101.6931, "location": "Kuala Lumpur", "year": 2008, "speech_count": 2 }, "geometry": { "type": "Point", "coordinates": [ 101.6931, 3.1408 ] } },
{ "type": "Feature", "properties": { "latitude": 3.1502, "longitude": 101.7123, "location": "Kuala Lumpur", "year": 2008, "speech_count": 1 }, "geometry": { "type": "Point", "coordinates": [ 101.7123, 3.1502 ] } },
{ "type": "Feature", "properties": { "latitude": 6.9271, "longitude": 79.8612, "location": "Colombo", "year": 2008, "speech_count": 1 }, "geometry": { "type": "Point", "coordinates": [ 79.8612, 6.9271 ] } },
{ "type": "Feature", "properties": { "latitude": 6.9319, "longitude": 79.8478, "location": "Colombo", "year": 2008, "speech_count": 9 }, "geometry": { "type": "Point", "coordinates": [ 79.8478, 6.9319 ] } },
{ "type": "Feature", "properties": { "latitude": 6.9344, "longitude": 79.8428, "location": "Colombo", "year": 2008, "speech_count": 1 }, "geometry": { "type": "Point", "coordinates": [ 79.8428, 6.9344 ] } },
{ "type": "Feature", "properties": { "latitude": 8.4844, "longitude": -13.2341, "location": "Freetown", "year": 2008, "speech_count": 2 }, "geometry": { "type": "Point", "coordinates": [ -13.2341, 8.4844 ] } },
{ "type": "Feature", "properties": { "latitude": 10.6596, "longitude": -61.5161, "location": "Port-of-Spain", "year": 2008, "speech_count": 1 }, "geometry": { "type": "Point", "coordinates": [ -61.5161, 10.6596 ] } },
{ "type": "Feature", "properties": { "latitude": 10.6596, "longitude": -61.5158, "location": "Port-of-Spain", "year": 2008, "speech_count": 1 }, "geometry": { "type": "Point", "coordinates": [ -61.5158, 10.6596 ] } },
{ "type": "Feature", "properties": { "latitude": 10.6596, "longitude": -61.5098, "location": "Port-of-Spain", "year": 2008, "speech_count": 1 }, "geometry": { "type": "Point", "coordinates": [ -61.5098, 10.6596 ] } },
{ "type": "Feature", "properties": { "latitude": 10.6918, "longitude": -61.2225, "location": "Port-of-Spain", "year": 2008, "speech_count": 6 }, "geometry": { "type": "Point", "coordinates": [ -61.2225, 10.6918 ] } },
{ "type": "Feature", "properties": { "latitude": 12.1045, "longitude": -68.9328, "location": "Willemstad", "year": 2008, "speech_count": 1 }, "geometry": { "type": "Point", "coordinates": [ -68.9328, 12.1045 ] } },
{ "type": "Feature", "properties": { "latitude": 12.1071, "longitude": -68.9334, "location": "Willemstad", "year": 2008, "speech_count": 1 }, "geometry": { "type": "Point", "coordinates": [ -68.9334, 12.1071 ] } },
{ "type": "Feature", "properties": { "latitude": 12.1076, "longitude": -68.9303, "location": "Willemstad", "year": 2008, "speech_count": 1 }, "geometry": { "type": "Point", "coordinates": [ -68.9303, 12.1076 ] } },
{ "type": "Feature", "properties": { "latitude": 12.1079, "longitude": -68.9301, "location": "Willemstad", "year": 2008, "speech_count": 1 }, "geometry": { "type": "Point", "coordinates": [ -68.9301, 12.1079 ] } },
{ "type": "Feature", "properties": { "latitude": 13.0827, "longitude": 80.2707, "location": "Chennai", "year": 2008, "speech_count": 1 }, "geometry": { "type": "Point", "coordinates": [ 80.2707, 13.0827 ] } },
{ "type": "Feature", "properties": { "latitude": 13.0931, "longitude": -59.6147, "location": "Bridgetown", "year": 2008, "speech_count": 1 }, "geometry": { "type": "Point", "coordinates": [ -59.6147, 13.0931 ] } },
{ "type": "Feature", "properties": { "latitude": 13.1, "longitude": -59.6167, "location": "Bridgetown", "year": 2008, "speech_count": 1 }, "geometry": { "type": "Point", "coordinates": [ -59.6167, 13.1 ] } },
{ "type": "Feature", "properties": { "latitude": 13.75, "longitude": 100.5166, "location": "Bangkok", "year": 2008, "speech_count": 1 }, "geometry": { "type": "Point", "coordinates": [ 100.5166, 13.75 ] } },
{ "type": "Feature", "properties": { "latitude": 13.7563, "longitude": 100.5018, "location": "Bangkok", "year": 2008, "speech_count": 15 }, "geometry": { "type": "Point", "coordinates": [ 100.5018, 13.7563 ] } },
{ "type": "Feature", "properties": { "latitude": 14.2812, "longitude": 120.9684, "location": "Trece Martirez City, Cavite", "year": 2008, "speech_count": 1 }, "geometry": { "type": "Point", "coordinates": [ 120.9684, 14.2812 ] } },
{ "type": "Feature", "properties": { "latitude": 14.5547, "longitude": 121.0244, "location": "Makati", "year": 2008, "speech_count": 8 }, "geometry": { "type": "Point", "coordinates": [ 121.0244, 14.5547 ] } },
{ "type": "Feature", "properties": { "latitude": 14.5833, "longitude": 120.9667, "location": "Manila", "year": 2008, "speech_count": 1 }, "geometry": { "type": "Point", "coordinates": [ 120.9667, 14.5833 ] } },
{ "type": "Feature", "properties": { "latitude": 14.5995, "longitude": 120.9842, "location": "Manila", "year": 2008, "speech_count": 18 }, "geometry": { "type": "Point", "coordinates": [ 120.9842, 14.5995 ] } },
{ "type": "Feature", "properties": { "latitude": 14.6042, "longitude": 120.9822, "location": "Manila", "year": 2008, "speech_count": 1 }, "geometry": { "type": "Point", "coordinates": [ 120.9822, 14.6042 ] } },
{ "type": "Feature", "properties": { "latitude": 14.6333, "longitude": 121.0333, "location": "Quezon City", "year": 2008, "speech_count": 1 }, "geometry": { "type": "Point", "coordinates": [ 121.0333, 14.6333 ] } },
{ "type": "Feature", "properties": { "latitude": 17.385, "longitude": 78.4867, "location": "Hyderabad", "year": 2008, "speech_count": 4 }, "geometry": { "type": "Point", "coordinates": [ 78.4867, 17.385 ] } },
{ "type": "Feature", "properties": { "latitude": 18.0183, "longitude": -63.0319, "location": "Philipsburg", "year": 2008, "speech_count": 1 }, "geometry": { "type": "Point", "coordinates": [ -63.0319, 18.0183 ] } },
{ "type": "Feature", "properties": { "latitude": 18.7888, "longitude": 98.9852, "location": "Chiang Mai", "year": 2008, "speech_count": 1 }, "geometry": { "type": "Point", "coordinates": [ 98.9852, 18.7888 ] } },
{ "type": "Feature", "properties": { "latitude": 19.0756, "longitude": 72.8777, "location": "Bombay", "year": 2008, "speech_count": 1 }, "geometry": { "type": "Point", "coordinates": [ 72.8777, 19.0756 ] } },
{ "type": "Feature", "properties": { "latitude": 19.076, "longitude": 72.8777, "location": "Bombay", "year": 2008, "speech_count": 11 }, "geometry": { "type": "Point", "coordinates": [ 72.8777, 19.076 ] } },
{ "type": "Feature", "properties": { "latitude": 22.1987, "longitude": 113.5439, "location": "Macau", "year": 2008, "speech_count": 4 }, "geometry": { "type": "Point", "coordinates": [ 113.5439, 22.1987 ] } },
{ "type": "Feature", "properties": { "latitude": 22.2855, "longitude": 114.1577, "location": "Hong Kong", "year": 2008, "speech_count": 1 }, "geometry": { "type": "Point", "coordinates": [ 114.1577, 22.2855 ] } },
{ "type": "Feature", "properties": { "latitude": 22.3027, "longitude": 114.1777, "location": "Hong Kong", "year": 2008, "speech_count": 2 }, "geometry": { "type": "Point", "coordinates": [ 114.1777, 22.3027 ] } },
{ "type": "Feature", "properties": { "latitude": 22.3027, "longitude": 114.1777, "location": "Hong Kong SAR", "year": 2008, "speech_count": 1 }, "geometry": { "type": "Point", "coordinates": [ 114.1777, 22.3027 ] } },
{ "type": "Feature", "properties": { "latitude": 22.3193, "longitude": 114.1694, "location": "Hong Kong", "year": 2008, "speech_count": 1 }, "geometry": { "type": "Point", "coordinates": [ 114.1694, 22.3193 ] } },
{ "type": "Feature", "properties": { "latitude": 22.3964, "longitude": 114.1095, "location": "Hong Kong", "year": 2008, "speech_count": 3 }, "geometry": { "type": "Point", "coordinates": [ 114.1095, 22.3964 ] } },
{ "type": "Feature", "properties": { "latitude": 22.5726, "longitude": 88.3639, "location": "Calcutta", "year": 2008, "speech_count": 2 }, "geometry": { "type": "Point", "coordinates": [ 88.3639, 22.5726 ] } },
{ "type": "Feature", "properties": { "latitude": 23.0225, "longitude": 72.5714, "location": "Ahmedabad", "year": 2008, "speech_count": 1 }, "geometry": { "type": "Point", "coordinates": [ 72.5714, 23.0225 ] } },
{ "type": "Feature", "properties": { "latitude": 24.6877, "longitude": 46.7211, "location": "Riyadh", "year": 2008, "speech_count": 1 }, "geometry": { "type": "Point", "coordinates": [ 46.7211, 24.6877 ] } },
{ "type": "Feature", "properties": { "latitude": 24.8607, "longitude": 67.0011, "location": "Karachi", "year": 2008, "speech_count": 5 }, "geometry": { "type": "Point", "coordinates": [ 67.0011, 24.8607 ] } },
{ "type": "Feature", "properties": { "latitude": 24.8607, "longitude": 67.0099, "location": "Karachi", "year": 2008, "speech_count": 2 }, "geometry": { "type": "Point", "coordinates": [ 67.0099, 24.8607 ] } },
{ "type": "Feature", "properties": { "latitude": 24.8608, "longitude": 67.0011, "location": "Karachi", "year": 2008, "speech_count": 1 }, "geometry": { "type": "Point", "coordinates": [ 67.0011, 24.8608 ] } },
{ "type": "Feature", "properties": { "latitude": 25.2048, "longitude": 55.2708, "location": "Dubai", "year": 2008, "speech_count": 1 }, "geometry": { "type": "Point", "coordinates": [ 55.2708, 25.2048 ] } },
{ "type": "Feature", "properties": { "latitude": 25.7617, "longitude": -80.1918, "location": "Miami", "year": 2008, "speech_count": 1 }, "geometry": { "type": "Point", "coordinates": [ -80.1918, 25.7617 ] } },
{ "type": "Feature", "properties": { "latitude": 26.0275, "longitude": 50.55, "location": "Bahrain", "year": 2008, "speech_count": 1 }, "geometry": { "type": "Point", "coordinates": [ 50.55, 26.0275 ] } },
{ "type": "Feature", "properties": { "latitude": 26.2286, "longitude": 50.5806, "location": "Manama", "year": 2008, "speech_count": 2 }, "geometry": { "type": "Point", "coordinates": [ 50.5806, 26.2286 ] } },
{ "type": "Feature", "properties": { "latitude": 26.2286, "longitude": 50.5822, "location": "Manama", "year": 2008, "speech_count": 1 }, "geometry": { "type": "Point", "coordinates": [ 50.5822, 26.2286 ] } },
{ "type": "Feature", "properties": { "latitude": 26.2286, "longitude": 50.5861, "location": "Manama", "year": 2008, "speech_count": 1 }, "geometry": { "type": "Point", "coordinates": [ 50.5861, 26.2286 ] } },
{ "type": "Feature", "properties": { "latitude": 26.2286, "longitude": 50.5866, "location": "Manama", "year": 2008, "speech_count": 5 }, "geometry": { "type": "Point", "coordinates": [ 50.5866, 26.2286 ] } },
{ "type": "Feature", "properties": { "latitude": 26.2286, "longitude": 50.5897, "location": "Manama", "year": 2008, "speech_count": 2 }, "geometry": { "type": "Point", "coordinates": [ 50.5897, 26.2286 ] } },
{ "type": "Feature", "properties": { "latitude": 28.5383, "longitude": -81.3792, "location": "Orlando", "year": 2008, "speech_count": 1 }, "geometry": { "type": "Point", "coordinates": [ -81.3792, 28.5383 ] } },
{ "type": "Feature", "properties": { "latitude": 28.6139, "longitude": 77.2089, "location": "Delhi", "year": 2008, "speech_count": 3 }, "geometry": { "type": "Point", "coordinates": [ 77.2089, 28.6139 ] } },
{ "type": "Feature", "properties": { "latitude": 28.6139, "longitude": 77.209, "location": "Delhi", "year": 2008, "speech_count": 1 }, "geometry": { "type": "Point", "coordinates": [ 77.209, 28.6139 ] } },
{ "type": "Feature", "properties": { "latitude": 28.6353, "longitude": 77.225, "location": "Delhi", "year": 2008, "speech_count": 1 }, "geometry": { "type": "Point", "coordinates": [ 77.225, 28.6353 ] } },
{ "type": "Feature", "properties": { "latitude": 29.5585, "longitude": 34.9723, "location": "Eliat", "year": 2008, "speech_count": 1 }, "geometry": { "type": "Point", "coordinates": [ 34.9723, 29.5585 ] } },
{ "type": "Feature", "properties": { "latitude": 29.9511, "longitude": -90.0715, "location": "New Orleans", "year": 2008, "speech_count": 4 }, "geometry": { "type": "Point", "coordinates": [ -90.0715, 29.9511 ] } },
{ "type": "Feature", "properties": { "latitude": 29.9511, "longitude": -90.0715, "location": "New Orleans, Louisiana", "year": 2008, "speech_count": 1 }, "geometry": { "type": "Point", "coordinates": [ -90.0715, 29.9511 ] } },
{ "type": "Feature", "properties": { "latitude": 30.0444, "longitude": 31.2357, "location": "Cairo", "year": 2008, "speech_count": 1 }, "geometry": { "type": "Point", "coordinates": [ 31.2357, 30.0444 ] } },
{ "type": "Feature", "properties": { "latitude": 30.2672, "longitude": -97.7431, "location": "Austin", "year": 2008, "speech_count": 1 }, "geometry": { "type": "Point", "coordinates": [ -97.7431, 30.2672 ] } },
{ "type": "Feature", "properties": { "latitude": 30.6328, "longitude": -81.4357, "location": "Amelia Island Plantation, Florida", "year": 2008, "speech_count": 1 }, "geometry": { "type": "Point", "coordinates": [ -81.4357, 30.6328 ] } },
{ "type": "Feature", "properties": { "latitude": 31.2001, "longitude": 29.9187, "location": "Alexandria", "year": 2008, "speech_count": 1 }, "geometry": { "type": "Point", "coordinates": [ 29.9187, 31.2001 ] } },
{ "type": "Feature", "properties": { "latitude": 31.3998, "longitude": -81.4001, "location": "Sea Island, Georgia", "year": 2008, "speech_count": 1 }, "geometry": { "type": "Point", "coordinates": [ -81.4001, 31.3998 ] } },
{ "type": "Feature", "properties": { "latitude": 31.5204, "longitude": 74.3587, "location": "Lahore", "year": 2008, "speech_count": 1 }, "geometry": { "type": "Point", "coordinates": [ 74.3587, 31.5204 ] } },
{ "type": "Feature", "properties": { "latitude": 31.7683, "longitude": 35.2137, "location": "Jerusalem", "year": 2008, "speech_count": 3 }, "geometry": { "type": "Point", "coordinates": [ 35.2137, 31.7683 ] } },
{ "type": "Feature", "properties": { "latitude": 31.9518, "longitude": 35.9282, "location": "Amman", "year": 2008, "speech_count": 1 }, "geometry": { "type": "Point", "coordinates": [ 35.9282, 31.9518 ] } },
{ "type": "Feature", "properties": { "latitude": 31.9522, "longitude": 35.9253, "location": "Amman", "year": 2008, "speech_count": 2 }, "geometry": { "type": "Point", "coordinates": [ 35.9253, 31.9522 ] } },
{ "type": "Feature", "properties": { "latitude": 31.9566, "longitude": 35.9453, "location": "Jordan", "year": 2008, "speech_count": 1 }, "geometry": { "type": "Point", "coordinates": [ 35.9453, 31.9566 ] } },
{ "type": "Feature", "properties": { "latitude": 32.0853, "longitude": 34.7818, "location": "Tel Aviv", "year": 2008, "speech_count": 4 }, "geometry": { "type": "Point", "coordinates": [ 34.7818, 32.0853 ] } },
{ "type": "Feature", "properties": { "latitude": 32.0853, "longitude": 34.8555, "location": "Ramat Gan", "year": 2008, "speech_count": 1 }, "geometry": { "type": "Point", "coordinates": [ 34.8555, 32.0853 ] } },
{ "type": "Feature", "properties": { "latitude": 32.1792, "longitude": 34.8264, "location": "Herzliya", "year": 2008, "speech_count": 1 }, "geometry": { "type": "Point", "coordinates": [ 34.8264, 32.1792 ] } },
{ "type": "Feature", "properties": { "latitude": 32.1931, "longitude": 34.8869, "location": "Raanana", "year": 2008, "speech_count": 1 }, "geometry": { "type": "Point", "coordinates": [ 34.8869, 32.1931 ] } },
{ "type": "Feature", "properties": { "latitude": 33.5121, "longitude": 126.5243, "location": "Jeju", "year": 2008, "speech_count": 1 }, "geometry": { "type": "Point", "coordinates": [ 126.5243, 33.5121 ] } },
{ "type": "Feature", "properties": { "latitude": 33.6069, "longitude": 130.4181, "location": "Fukuoka", "year": 2008, "speech_count": 1 }, "geometry": { "type": "Point", "coordinates": [ 130.4181, 33.6069 ] } },
{ "type": "Feature", "properties": { "latitude": 33.6751, "longitude": 73.0942, "location": "Islamabad", "year": 2008, "speech_count": 1 }, "geometry": { "type": "Point", "coordinates": [ 73.0942, 33.6751 ] } },
{ "type": "Feature", "properties": { "latitude": 33.7294, "longitude": 73.0931, "location": "Islamabad", "year": 2008, "speech_count": 1 }, "geometry": { "type": "Point", "coordinates": [ 73.0931, 33.7294 ] } },
{ "type": "Feature", "properties": { "latitude": 34.2257, "longitude": -77.9445, "location": "Wilmington", "year": 2008, "speech_count": 1 }, "geometry": { "type": "Point", "coordinates": [ -77.9445, 34.2257 ] } },
{ "type": "Feature", "properties": { "latitude": 34.6939, "longitude": 135.5022, "location": "Osaka", "year": 2008, "speech_count": 1 }, "geometry": { "type": "Point", "coordinates": [ 135.5022, 34.6939 ] } },
{ "type": "Feature", "properties": { "latitude": 35.1678, "longitude": 33.3736, "location": "Nicosia", "year": 2008, "speech_count": 1 }, "geometry": { "type": "Point", "coordinates": [ 33.3736, 35.1678 ] } },
{ "type": "Feature", "properties": { "latitude": 35.1815, "longitude": 136.9064, "location": "Nagoya", "year": 2008, "speech_count": 2 }, "geometry": { "type": "Point", "coordinates": [ 136.9064, 35.1815 ] } },
{ "type": "Feature", "properties": { "latitude": 35.2271, "longitude": -80.8431, "location": "Charlotte", "year": 2008, "speech_count": 1 }, "geometry": { "type": "Point", "coordinates": [ -80.8431, 35.2271 ] } },
{ "type": "Feature", "properties": { "latitude": 35.6126, "longitude": -77.3664, "location": "Greenville, North Carolina", "year": 2008, "speech_count": 1 }, "geometry": { "type": "Point", "coordinates": [ -77.3664, 35.6126 ] } },
{ "type": "Feature", "properties": { "latitude": 35.6804, "longitude": 139.769, "location": "Tokyo", "year": 2008, "speech_count": 1 }, "geometry": { "type": "Point", "coordinates": [ 139.769, 35.6804 ] } },
{ "type": "Feature", "properties": { "latitude": 35.6895, "longitude": 139.6917, "location": "Tokyo", "year": 2008, "speech_count": 14 }, "geometry": { "type": "Point", "coordinates": [ 139.6917, 35.6895 ] } },
{ "type": "Feature", "properties": { "latitude": 35.8978, "longitude": 14.5126, "location": "Valletta", "year": 2008, "speech_count": 2 }, "geometry": { "type": "Point", "coordinates": [ 14.5126, 35.8978 ] } },
{ "type": "Feature", "properties": { "latitude": 35.994, "longitude": -78.9002, "location": "Durham", "year": 2008, "speech_count": 1 }, "geometry": { "type": "Point", "coordinates": [ -78.9002, 35.994 ] } },
{ "type": "Feature", "properties": { "latitude": 36.1699, "longitude": -115.1398, "location": "Las Vegas", "year": 2008, "speech_count": 1 }, "geometry": { "type": "Point", "coordinates": [ -115.1398, 36.1699 ] } },
{ "type": "Feature", "properties": { "latitude": 36.7438, "longitude": -5.1566, "location": "Ronda", "year": 2008, "speech_count": 1 }, "geometry": { "type": "Point", "coordinates": [ -5.1566, 36.7438 ] } },
{ "type": "Feature", "properties": { "latitude": 36.8065, "longitude": 10.1815, "location": "Tunis", "year": 2008, "speech_count": 1 }, "geometry": { "type": "Point", "coordinates": [ 10.1815, 36.8065 ] } },
{ "type": "Feature", "properties": { "latitude": 37.3828, "longitude": -5.9963, "location": "Seville", "year": 2008, "speech_count": 1 }, "geometry": { "type": "Point", "coordinates": [ -5.9963, 37.3828 ] } },
{ "type": "Feature", "properties": { "latitude": 37.5139, "longitude": 126.9828, "location": "Seoul", "year": 2008, "speech_count": 1 }, "geometry": { "type": "Point", "coordinates": [ 126.9828, 37.5139 ] } },
{ "type": "Feature", "properties": { "latitude": 37.5537, "longitude": -77.4603, "location": "Richmond", "year": 2008, "speech_count": 1 }, "geometry": { "type": "Point", "coordinates": [ -77.4603, 37.5537 ] } },
{ "type": "Feature", "properties": { "latitude": 37.5665, "longitude": 126.978, "location": "Seoul", "year": 2008, "speech_count": 3 }, "geometry": { "type": "Point", "coordinates": [ 126.978, 37.5665 ] } },
{ "type": "Feature", "properties": { "latitude": 37.8716, "longitude": -122.2727, "location": "Berkeley", "year": 2008, "speech_count": 1 }, "geometry": { "type": "Point", "coordinates": [ -122.2727, 37.8716 ] } },
{ "type": "Feature", "properties": { "latitude": 37.9792, "longitude": 23.7166, "location": "Athens", "year": 2008, "speech_count": 2 }, "geometry": { "type": "Point", "coordinates": [ 23.7166, 37.9792 ] } },
{ "type": "Feature", "properties": { "latitude": 37.9838, "longitude": 23.7275, "location": "Athens", "year": 2008, "speech_count": 8 }, "geometry": { "type": "Point", "coordinates": [ 23.7275, 37.9838 ] } },
{ "type": "Feature", "properties": { "latitude": 38.0406, "longitude": -84.5035, "location": "Lexington", "year": 2008, "speech_count": 1 }, "geometry": { "type": "Point", "coordinates": [ -84.5035, 38.0406 ] } },
{ "type": "Feature", "properties": { "latitude": 38.8895, "longitude": -77.109, "location": "Arlington", "year": 2008, "speech_count": 1 }, "geometry": { "type": "Point", "coordinates": [ -77.109, 38.8895 ] } },
{ "type": "Feature", "properties": { "latitude": 38.8921, "longitude": -77.0369, "location": "Washington", "year": 2008, "speech_count": 1 }, "geometry": { "type": "Point", "coordinates": [ -77.0369, 38.8921 ] } },
{ "type": "Feature", "properties": { "latitude": 38.8951, "longitude": -77.0364, "location": "Washington", "year": 2008, "speech_count": 47 }, "geometry": { "type": "Point", "coordinates": [ -77.0364, 38.8951 ] } },
{ "type": "Feature", "properties": { "latitude": 38.9072, "longitude": -77.0369, "location": "Washington", "year": 2008, "speech_count": 2 }, "geometry": { "type": "Point", "coordinates": [ -77.0369, 38.9072 ] } },
{ "type": "Feature", "properties": { "latitude": 39.0997, "longitude": -94.5786, "location": "Kansas City", "year": 2008, "speech_count": 1 }, "geometry": { "type": "Point", "coordinates": [ -94.5786, 39.0997 ] } },
{ "type": "Feature", "properties": { "latitude": 39.1031, "longitude": -84.512, "location": "Cincinnati, Ohio", "year": 2008, "speech_count": 1 }, "geometry": { "type": "Point", "coordinates": [ -84.512, 39.1031 ] } },
{ "type": "Feature", "properties": { "latitude": 39.2904, "longitude": -76.6122, "location": "Baltimore, Maryland", "year": 2008, "speech_count": 1 }, "geometry": { "type": "Point", "coordinates": [ -76.6122, 39.2904 ] } },
{ "type": "Feature", "properties": { "latitude": 39.9042, "longitude": 116.4074, "location": "Beijing", "year": 2008, "speech_count": 5 }, "geometry": { "type": "Point", "coordinates": [ 116.4074, 39.9042 ] } },
{ "type": "Feature", "properties": { "latitude": 39.9208, "longitude": 32.8541, "location": "Ankara", "year": 2008, "speech_count": 5 }, "geometry": { "type": "Point", "coordinates": [ 32.8541, 39.9208 ] } },
{ "type": "Feature", "properties": { "latitude": 39.9439, "longitude": 32.8541, "location": "Ankara", "year": 2008, "speech_count": 1 }, "geometry": { "type": "Point", "coordinates": [ 32.8541, 39.9439 ] } },
{ "type": "Feature", "properties": { "latitude": 39.9526, "longitude": -75.1652, "location": "Philadelphia", "year": 2008, "speech_count": 1 }, "geometry": { "type": "Point", "coordinates": [ -75.1652, 39.9526 ] } },
{ "type": "Feature", "properties": { "latitude": 40.4165, "longitude": -3.7026, "location": "Madrid", "year": 2008, "speech_count": 1 }, "geometry": { "type": "Point", "coordinates": [ -3.7026, 40.4165 ] } },
{ "type": "Feature", "properties": { "latitude": 40.4167, "longitude": -3.7033, "location": "Madrid", "year": 2008, "speech_count": 6 }, "geometry": { "type": "Point", "coordinates": [ -3.7033, 40.4167 ] } },
{ "type": "Feature", "properties": { "latitude": 40.4168, "longitude": -3.7038, "location": "Madrid", "year": 2008, "speech_count": 3 }, "geometry": { "type": "Point", "coordinates": [ -3.7038, 40.4168 ] } },
{ "type": "Feature", "properties": { "latitude": 40.7127, "longitude": -74.0059, "location": "New York", "year": 2008, "speech_count": 4 }, "geometry": { "type": "Point", "coordinates": [ -74.0059, 40.7127 ] } },
{ "type": "Feature", "properties": { "latitude": 40.7128, "longitude": -74.006, "location": "New York", "year": 2008, "speech_count": 5 }, "geometry": { "type": "Point", "coordinates": [ -74.006, 40.7128 ] } },
{ "type": "Feature", "properties": { "latitude": 40.7128, "longitude": -74.0059, "location": "New York", "year": 2008, "speech_count": 11 }, "geometry": { "type": "Point", "coordinates": [ -74.0059, 40.7128 ] } },
{ "type": "Feature", "properties": { "latitude": 41.0082, "longitude": 28.9784, "location": "Istanbul", "year": 2008, "speech_count": 3 }, "geometry": { "type": "Point", "coordinates": [ 28.9784, 41.0082 ] } },
{ "type": "Feature", "properties": { "latitude": 41.113, "longitude": 20.7992, "location": "Ohrid", "year": 2008, "speech_count": 1 }, "geometry": { "type": "Point", "coordinates": [ 20.7992, 41.113 ] } },
{ "type": "Feature", "properties": { "latitude": 41.3275, "longitude": 19.8187, "location": "Tirana", "year": 2008, "speech_count": 4 }, "geometry": { "type": "Point", "coordinates": [ 19.8187, 41.3275 ] } },
{ "type": "Feature", "properties": { "latitude": 41.3275, "longitude": 19.8189, "location": "Tirana", "year": 2008, "speech_count": 2 }, "geometry": { "type": "Point", "coordinates": [ 19.8189, 41.3275 ] } },
{ "type": "Feature", "properties": { "latitude": 41.3851, "longitude": 2.1734, "location": "Barcelona", "year": 2008, "speech_count": 6 }, "geometry": { "type": "Point", "coordinates": [ 2.1734, 41.3851 ] } },
{ "type": "Feature", "properties": { "latitude": 41.3888, "longitude": 2.1589, "location": "Barcelona", "year": 2008, "speech_count": 1 }, "geometry": { "type": "Point", "coordinates": [ 2.1589, 41.3888 ] } },
{ "type": "Feature", "properties": { "latitude": 41.4993, "longitude": -81.6944, "location": "Cleveland", "year": 2008, "speech_count": 1 }, "geometry": { "type": "Point", "coordinates": [ -81.6944, 41.4993 ] } },
{ "type": "Feature", "properties": { "latitude": 41.8781, "longitude": -87.6298, "location": "Chicago", "year": 2008, "speech_count": 2 }, "geometry": { "type": "Point", "coordinates": [ -87.6298, 41.8781 ] } },
{ "type": "Feature", "properties": { "latitude": 41.8819, "longitude": -87.6231, "location": "Chicago", "year": 2008, "speech_count": 1 }, "geometry": { "type": "Point", "coordinates": [ -87.6231, 41.8819 ] } },
{ "type": "Feature", "properties": { "latitude": 41.8902, "longitude": 12.4923, "location": "Rome", "year": 2008, "speech_count": 4 }, "geometry": { "type": "Point", "coordinates": [ 12.4923, 41.8902 ] } },
{ "type": "Feature", "properties": { "latitude": 42.0024, "longitude": 21.4365, "location": "Skopje", "year": 2008, "speech_count": 1 }, "geometry": { "type": "Point", "coordinates": [ 21.4365, 42.0024 ] } },
{ "type": "Feature", "properties": { "latitude": 42.0341, "longitude": 20.4236, "location": "Kukes", "year": 2008, "speech_count": 1 }, "geometry": { "type": "Point", "coordinates": [ 20.4236, 42.0341 ] } },
{ "type": "Feature", "properties": { "latitude": 42.3601, "longitude": -71.0589, "location": "Boston", "year": 2008, "speech_count": 3 }, "geometry": { "type": "Point", "coordinates": [ -71.0589, 42.3601 ] } },
{ "type": "Feature", "properties": { "latitude": 42.3605, "longitude": -71.0903, "location": "Cambridge", "year": 2008, "speech_count": 1 }, "geometry": { "type": "Point", "coordinates": [ -71.0903, 42.3605 ] } },
{ "type": "Feature", "properties": { "latitude": 42.4072, "longitude": -70.4542, "location": "Chatham", "year": 2008, "speech_count": 1 }, "geometry": { "type": "Point", "coordinates": [ -70.4542, 42.4072 ] } },
{ "type": "Feature", "properties": { "latitude": 42.4147, "longitude": -82.3987, "location": "Chatham", "year": 2008, "speech_count": 2 }, "geometry": { "type": "Point", "coordinates": [ -82.3987, 42.4147 ] } },
{ "type": "Feature", "properties": { "latitude": 42.8784, "longitude": -8.5447, "location": "Santiago de Compostela", "year": 2008, "speech_count": 1 }, "geometry": { "type": "Point", "coordinates": [ -8.5447, 42.8784 ] } },
{ "type": "Feature", "properties": { "latitude": 42.9834, "longitude": -81.2342, "location": "London, Ontario", "year": 2008, "speech_count": 1 }, "geometry": { "type": "Point", "coordinates": [ -81.2342, 42.9834 ] } },
{ "type": "Feature", "properties": { "latitude": 43.0642, "longitude": 141.3469, "location": "Sapporo", "year": 2008, "speech_count": 1 }, "geometry": { "type": "Point", "coordinates": [ 141.3469, 43.0642 ] } },
{ "type": "Feature", "properties": { "latitude": 43.3209, "longitude": -1.9848, "location": "San Sebastian", "year": 2008, "speech_count": 1 }, "geometry": { "type": "Point", "coordinates": [ -1.9848, 43.3209 ] } },
{ "type": "Feature", "properties": { "latitude": 43.5291, "longitude": 5.4485, "location": "Aix-en-Provence", "year": 2008, "speech_count": 1 }, "geometry": { "type": "Point", "coordinates": [ 5.4485, 43.5291 ] } },
{ "type": "Feature", "properties": { "latitude": 43.5299, "longitude": 5.4478, "location": "Aix-en-Provence", "year": 2008, "speech_count": 1 }, "geometry": { "type": "Point", "coordinates": [ 5.4478, 43.5299 ] } },
{ "type": "Feature", "properties": { "latitude": 43.5528, "longitude": 7.0172, "location": "Cannes", "year": 2008, "speech_count": 1 }, "geometry": { "type": "Point", "coordinates": [ 7.0172, 43.5528 ] } },
{ "type": "Feature", "properties": { "latitude": 43.5766, "longitude": -110.8108, "location": "Jackson Hole", "year": 2008, "speech_count": 1 }, "geometry": { "type": "Point", "coordinates": [ -110.8108, 43.5766 ] } },
{ "type": "Feature", "properties": { "latitude": 43.5844, "longitude": -110.7872, "location": "Jackson Hole", "year": 2008, "speech_count": 1 }, "geometry": { "type": "Point", "coordinates": [ -110.7872, 43.5844 ] } },
{ "type": "Feature", "properties": { "latitude": 43.6532, "longitude": -79.3832, "location": "Toronto", "year": 2008, "speech_count": 3 }, "geometry": { "type": "Point", "coordinates": [ -79.3832, 43.6532 ] } },
{ "type": "Feature", "properties": { "latitude": 43.6968, "longitude": 7.2681, "location": "Nice", "year": 2008, "speech_count": 1 }, "geometry": { "type": "Point", "coordinates": [ 7.2681, 43.6968 ] } },
{ "type": "Feature", "properties": { "latitude": 43.7003, "longitude": -72.2891, "location": "Hanover", "year": 2008, "speech_count": 1 }, "geometry": { "type": "Point", "coordinates": [ -72.2891, 43.7003 ] } },
{ "type": "Feature", "properties": { "latitude": 43.7034, "longitude": 7.2661, "location": "Nice", "year": 2008, "speech_count": 2 }, "geometry": { "type": "Point", "coordinates": [ 7.2661, 43.7034 ] } },
{ "type": "Feature", "properties": { "latitude": 43.7038, "longitude": 7.2659, "location": "Nice", "year": 2008, "speech_count": 1 }, "geometry": { "type": "Point", "coordinates": [ 7.2659, 43.7038 ] } },
{ "type": "Feature", "properties": { "latitude": 43.7696, "longitude": 11.2558, "location": "Florence", "year": 2008, "speech_count": 1 }, "geometry": { "type": "Point", "coordinates": [ 11.2558, 43.7696 ] } },
{ "type": "Feature", "properties": { "latitude": 43.8563, "longitude": 18.4131, "location": "Sarajevo", "year": 2008, "speech_count": 1 }, "geometry": { "type": "Point", "coordinates": [ 18.4131, 43.8563 ] } },
{ "type": "Feature", "properties": { "latitude": 44.0429, "longitude": -113.0544, "location": "St George", "year": 2008, "speech_count": 1 }, "geometry": { "type": "Point", "coordinates": [ -113.0544, 44.0429 ] } },
{ "type": "Feature", "properties": { "latitude": 44.2314, "longitude": -76.4845, "location": "Kingston, Ontario", "year": 2008, "speech_count": 1 }, "geometry": { "type": "Point", "coordinates": [ -76.4845, 44.2314 ] } },
{ "type": "Feature", "properties": { "latitude": 44.4268, "longitude": 26.1025, "location": "Bucarest", "year": 2008, "speech_count": 1 }, "geometry": { "type": "Point", "coordinates": [ 26.1025, 44.4268 ] } },
{ "type": "Feature", "properties": { "latitude": 44.4322, "longitude": 26.1063, "location": "Bucharest", "year": 2008, "speech_count": 2 }, "geometry": { "type": "Point", "coordinates": [ 26.1063, 44.4322 ] } },
{ "type": "Feature", "properties": { "latitude": 44.4944, "longitude": 33.5933, "location": "Balaclava", "year": 2008, "speech_count": 1 }, "geometry": { "type": "Point", "coordinates": [ 33.5933, 44.4944 ] } },
{ "type": "Feature", "properties": { "latitude": 44.8024, "longitude": 20.4781, "location": "Belgrade", "year": 2008, "speech_count": 2 }, "geometry": { "type": "Point", "coordinates": [ 20.4781, 44.8024 ] } },
{ "type": "Feature", "properties": { "latitude": 44.804, "longitude": 20.4759, "location": "Belgrade", "year": 2008, "speech_count": 1 }, "geometry": { "type": "Point", "coordinates": [ 20.4759, 44.804 ] } },
{ "type": "Feature", "properties": { "latitude": 44.8186, "longitude": 20.4681, "location": "Belgrade", "year": 2008, "speech_count": 10 }, "geometry": { "type": "Point", "coordinates": [ 20.4681, 44.8186 ] } },
{ "type": "Feature", "properties": { "latitude": 44.8186, "longitude": 20.4689, "location": "Belgrade", "year": 2008, "speech_count": 1 }, "geometry": { "type": "Point", "coordinates": [ 20.4689, 44.8186 ] } },
{ "type": "Feature", "properties": { "latitude": 44.9778, "longitude": -93.265, "location": "Minneapolis", "year": 2008, "speech_count": 1 }, "geometry": { "type": "Point", "coordinates": [ -93.265, 44.9778 ] } },
{ "type": "Feature", "properties": { "latitude": 44.9917, "longitude": 7.8917, "location": "Moncalieri", "year": 2008, "speech_count": 1 }, "geometry": { "type": "Point", "coordinates": [ 7.8917, 44.9917 ] } },
{ "type": "Feature", "properties": { "latitude": 45.4215, "longitude": -75.6972, "location": "Ottawa", "year": 2008, "speech_count": 10 }, "geometry": { "type": "Point", "coordinates": [ -75.6972, 45.4215 ] } },
{ "type": "Feature", "properties": { "latitude": 45.4408, "longitude": 12.3155, "location": "Venice", "year": 2008, "speech_count": 1 }, "geometry": { "type": "Point", "coordinates": [ 12.3155, 45.4408 ] } },
{ "type": "Feature", "properties": { "latitude": 45.4642, "longitude": 9.1895, "location": "Milan", "year": 2008, "speech_count": 6 }, "geometry": { "type": "Point", "coordinates": [ 9.1895, 45.4642 ] } },
{ "type": "Feature", "properties": { "latitude": 45.5017, "longitude": -73.5673, "location": "Montreal", "year": 2008, "speech_count": 1 }, "geometry": { "type": "Point", "coordinates": [ -73.5673, 45.5017 ] } },
{ "type": "Feature", "properties": { "latitude": 45.5017, "longitude": -73.5673, "location": "Montral", "year": 2008, "speech_count": 1 }, "geometry": { "type": "Point", "coordinates": [ -73.5673, 45.5017 ] } },
{ "type": "Feature", "properties": { "latitude": 45.5088, "longitude": -73.554, "location": "Montral", "year": 2008, "speech_count": 1 }, "geometry": { "type": "Point", "coordinates": [ -73.554, 45.5088 ] } },
{ "type": "Feature", "properties": { "latitude": 45.6667, "longitude": -62.6667, "location": "Pictou", "year": 2008, "speech_count": 1 }, "geometry": { "type": "Point", "coordinates": [ -62.6667, 45.6667 ] } },
{ "type": "Feature", "properties": { "latitude": 45.8333, "longitude": 9.0833, "location": "Cernobbio", "year": 2008, "speech_count": 1 }, "geometry": { "type": "Point", "coordinates": [ 9.0833, 45.8333 ] } },
{ "type": "Feature", "properties": { "latitude": 46.0462, "longitude": 8.9327, "location": "Vezia", "year": 2008, "speech_count": 1 }, "geometry": { "type": "Point", "coordinates": [ 8.9327, 46.0462 ] } },
{ "type": "Feature", "properties": { "latitude": 46.2018, "longitude": 6.1402, "location": "Geneva", "year": 2008, "speech_count": 1 }, "geometry": { "type": "Point", "coordinates": [ 6.1402, 46.2018 ] } },
{ "type": "Feature", "properties": { "latitude": 46.2018, "longitude": 6.1404, "location": "Geneva", "year": 2008, "speech_count": 3 }, "geometry": { "type": "Point", "coordinates": [ 6.1404, 46.2018 ] } },
{ "type": "Feature", "properties": { "latitude": 46.2018, "longitude": 6.1418, "location": "Geneva", "year": 2008, "speech_count": 1 }, "geometry": { "type": "Point", "coordinates": [ 6.1418, 46.2018 ] } },
{ "type": "Feature", "properties": { "latitude": 46.2018, "longitude": 6.1455, "location": "Geneva", "year": 2008, "speech_count": 2 }, "geometry": { "type": "Point", "coordinates": [ 6.1455, 46.2018 ] } },
{ "type": "Feature", "properties": { "latitude": 46.2044, "longitude": 6.1432, "location": "Geneva", "year": 2008, "speech_count": 1 }, "geometry": { "type": "Point", "coordinates": [ 6.1432, 46.2044 ] } },
{ "type": "Feature", "properties": { "latitude": 46.5196, "longitude": 6.6323, "location": "Lausanne", "year": 2008, "speech_count": 2 }, "geometry": { "type": "Point", "coordinates": [ 6.6323, 46.5196 ] } },
{ "type": "Feature", "properties": { "latitude": 46.7845, "longitude": 9.8457, "location": "Davos", "year": 2008, "speech_count": 1 }, "geometry": { "type": "Point", "coordinates": [ 9.8457, 46.7845 ] } },
{ "type": "Feature", "properties": { "latitude": 46.8139, "longitude": -71.208, "location": "Qubec City", "year": 2008, "speech_count": 1 }, "geometry": { "type": "Point", "coordinates": [ -71.208, 46.8139 ] } },
{ "type": "Feature", "properties": { "latitude": 46.9479, "longitude": 7.4446, "location": "Bern", "year": 2008, "speech_count": 1 }, "geometry": { "type": "Point", "coordinates": [ 7.4446, 46.9479 ] } },
{ "type": "Feature", "properties": { "latitude": 46.948, "longitude": 7.4458, "location": "Berne", "year": 2008, "speech_count": 2 }, "geometry": { "type": "Point", "coordinates": [ 7.4458, 46.948 ] } },
{ "type": "Feature", "properties": { "latitude": 46.948, "longitude": 7.4474, "location": "Berne", "year": 2008, "speech_count": 2 }, "geometry": { "type": "Point", "coordinates": [ 7.4474, 46.948 ] } },
{ "type": "Feature", "properties": { "latitude": 46.9481, "longitude": 7.4474, "location": "Berne", "year": 2008, "speech_count": 1 }, "geometry": { "type": "Point", "coordinates": [ 7.4474, 46.9481 ] } },
{ "type": "Feature", "properties": { "latitude": 47.0506, "longitude": 8.3076, "location": "Luzern", "year": 2008, "speech_count": 2 }, "geometry": { "type": "Point", "coordinates": [ 8.3076, 47.0506 ] } },
{ "type": "Feature", "properties": { "latitude": 47.1734, "longitude": 8.5167, "location": "Zug", "year": 2008, "speech_count": 1 }, "geometry": { "type": "Point", "coordinates": [ 8.5167, 47.1734 ] } },
{ "type": "Feature", "properties": { "latitude": 47.2895, "longitude": 7.9407, "location": "Zofingen", "year": 2008, "speech_count": 1 }, "geometry": { "type": "Point", "coordinates": [ 7.9407, 47.2895 ] } },
{ "type": "Feature", "properties": { "latitude": 47.3686, "longitude": 8.5391, "location": "Zurich", "year": 2008, "speech_count": 1 }, "geometry": { "type": "Point", "coordinates": [ 8.5391, 47.3686 ] } },
{ "type": "Feature", "properties": { "latitude": 47.3769, "longitude": 8.5417, "location": "Zurich", "year": 2008, "speech_count": 8 }, "geometry": { "type": "Point", "coordinates": [ 8.5417, 47.3769 ] } },
{ "type": "Feature", "properties": { "latitude": 47.4828, "longitude": -122.217, "location": "Renton", "year": 2008, "speech_count": 1 }, "geometry": { "type": "Point", "coordinates": [ -122.217, 47.4828 ] } },
{ "type": "Feature", "properties": { "latitude": 47.4979, "longitude": 19.0402, "location": "Budapest", "year": 2008, "speech_count": 1 }, "geometry": { "type": "Point", "coordinates": [ 19.0402, 47.4979 ] } },
{ "type": "Feature", "properties": { "latitude": 47.5596, "longitude": 7.5889, "location": "Basel", "year": 2008, "speech_count": 1 }, "geometry": { "type": "Point", "coordinates": [ 7.5889, 47.5596 ] } },
{ "type": "Feature", "properties": { "latitude": 47.5596, "longitude": 7.5898, "location": "Basel", "year": 2008, "speech_count": 1 }, "geometry": { "type": "Point", "coordinates": [ 7.5898, 47.5596 ] } },
{ "type": "Feature", "properties": { "latitude": 47.6624, "longitude": 9.1744, "location": "Constance", "year": 2008, "speech_count": 1 }, "geometry": { "type": "Point", "coordinates": [ 9.1744, 47.6624 ] } },
{ "type": "Feature", "properties": { "latitude": 47.9988, "longitude": 7.8424, "location": "Freiburg", "year": 2008, "speech_count": 1 }, "geometry": { "type": "Point", "coordinates": [ 7.8424, 47.9988 ] } },
{ "type": "Feature", "properties": { "latitude": 48.1351, "longitude": 11.575, "location": "Munich", "year": 2008, "speech_count": 1 }, "geometry": { "type": "Point", "coordinates": [ 11.575, 48.1351 ] } },
{ "type": "Feature", "properties": { "latitude": 48.1351, "longitude": 11.582, "location": "Munich", "year": 2008, "speech_count": 1 }, "geometry": { "type": "Point", "coordinates": [ 11.582, 48.1351 ] } },
{ "type": "Feature", "properties": { "latitude": 48.1486, "longitude": 17.1077, "location": "Bratislava", "year": 2008, "speech_count": 4 }, "geometry": { "type": "Point", "coordinates": [ 17.1077, 48.1486 ] } },
{ "type": "Feature", "properties": { "latitude": 48.2082, "longitude": 16.3738, "location": "Vienna", "year": 2008, "speech_count": 5 }, "geometry": { "type": "Point", "coordinates": [ 16.3738, 48.2082 ] } },
{ "type": "Feature", "properties": { "latitude": 48.5228, "longitude": 9.0511, "location": "Tbingen", "year": 2008, "speech_count": 1 }, "geometry": { "type": "Point", "coordinates": [ 9.0511, 48.5228 ] } },
{ "type": "Feature", "properties": { "latitude": 48.5834, "longitude": 7.7459, "location": "Strasbourg", "year": 2008, "speech_count": 2 }, "geometry": { "type": "Point", "coordinates": [ 7.7459, 48.5834 ] } },
{ "type": "Feature", "properties": { "latitude": 48.8566, "longitude": 2.3522, "location": "Paris", "year": 2008, "speech_count": 13 }, "geometry": { "type": "Point", "coordinates": [ 2.3522, 48.8566 ] } },
{ "type": "Feature", "properties": { "latitude": 48.8582, "longitude": 2.2945, "location": "Paris", "year": 2008, "speech_count": 10 }, "geometry": { "type": "Point", "coordinates": [ 2.2945, 48.8582 ] } },
{ "type": "Feature", "properties": { "latitude": 48.8589, "longitude": 2.2947, "location": "Paris", "year": 2008, "speech_count": 6 }, "geometry": { "type": "Point", "coordinates": [ 2.2947, 48.8589 ] } },
{ "type": "Feature", "properties": { "latitude": 49.2827, "longitude": -123.1207, "location": "Vancouver", "year": 2008, "speech_count": 1 }, "geometry": { "type": "Point", "coordinates": [ -123.1207, 49.2827 ] } },
{ "type": "Feature", "properties": { "latitude": 49.4878, "longitude": 8.4667, "location": "Mannheim", "year": 2008, "speech_count": 1 }, "geometry": { "type": "Point", "coordinates": [ 8.4667, 49.4878 ] } },
{ "type": "Feature", "properties": { "latitude": 49.6116, "longitude": 6.1319, "location": "Luxembourg", "year": 2008, "speech_count": 9 }, "geometry": { "type": "Point", "coordinates": [ 6.1319, 49.6116 ] } },
{ "type": "Feature", "properties": { "latitude": 49.9938, "longitude": 8.1567, "location": "Eltville", "year": 2008, "speech_count": 1 }, "geometry": { "type": "Point", "coordinates": [ 8.1567, 49.9938 ] } },
{ "type": "Feature", "properties": { "latitude": 50.0833, "longitude": 8.2417, "location": "Wiesbaden", "year": 2008, "speech_count": 1 }, "geometry": { "type": "Point", "coordinates": [ 8.2417, 50.0833 ] } },
{ "type": "Feature", "properties": { "latitude": 50.0878, "longitude": 14.4205, "location": "Prague", "year": 2008, "speech_count": 4 }, "geometry": { "type": "Point", "coordinates": [ 14.4205, 50.0878 ] } },
{ "type": "Feature", "properties": { "latitude": 50.1109, "longitude": 8.6821, "location": "Frankfurt", "year": 2008, "speech_count": 60 }, "geometry": { "type": "Point", "coordinates": [ 8.6821, 50.1109 ] } },
{ "type": "Feature", "properties": { "latitude": 50.7766, "longitude": 6.0834, "location": "Aachen", "year": 2008, "speech_count": 1 }, "geometry": { "type": "Point", "coordinates": [ 6.0834, 50.7766 ] } },
{ "type": "Feature", "properties": { "latitude": 50.8465, "longitude": 4.3517, "location": "Brussels", "year": 2008, "speech_count": 23 }, "geometry": { "type": "Point", "coordinates": [ 4.3517, 50.8465 ] } },
{ "type": "Feature", "properties": { "latitude": 51.0442, "longitude": -114.0547, "location": "Calgary", "year": 2008, "speech_count": 1 }, "geometry": { "type": "Point", "coordinates": [ -114.0547, 51.0442 ] } },
{ "type": "Feature", "properties": { "latitude": 51.0447, "longitude": -114.0719, "location": "Calgary", "year": 2008, "speech_count": 1 }, "geometry": { "type": "Point", "coordinates": [ -114.0719, 51.0447 ] } },
{ "type": "Feature", "properties": { "latitude": 51.1784, "longitude": -115.5708, "location": "Banff", "year": 2008, "speech_count": 1 }, "geometry": { "type": "Point", "coordinates": [ -115.5708, 51.1784 ] } },
{ "type": "Feature", "properties": { "latitude": 51.4499, "longitude": -116.2041, "location": "Lake Louise", "year": 2008, "speech_count": 1 }, "geometry": { "type": "Point", "coordinates": [ -116.2041, 51.4499 ] } },
{ "type": "Feature", "properties": { "latitude": 51.4545, "longitude": -2.5879, "location": "Bristol", "year": 2008, "speech_count": 1 }, "geometry": { "type": "Point", "coordinates": [ -2.5879, 51.4545 ] } },
{ "type": "Feature", "properties": { "latitude": 51.5074, "longitude": -0.1278, "location": "London", "year": 2008, "speech_count": 25 }, "geometry": { "type": "Point", "coordinates": [ -0.1278, 51.5074 ] } },
{ "type": "Feature", "properties": { "latitude": 51.5528, "longitude": 5.0908, "location": "Tilburg", "year": 2008, "speech_count": 1 }, "geometry": { "type": "Point", "coordinates": [ 5.0908, 51.5528 ] } },
{ "type": "Feature", "properties": { "latitude": 52.2053, "longitude": 0.1218, "location": "Cambridge", "year": 2008, "speech_count": 1 }, "geometry": { "type": "Point", "coordinates": [ 0.1218, 52.2053 ] } },
{ "type": "Feature", "properties": { "latitude": 52.3702, "longitude": 4.8952, "location": "Amsterdam", "year": 2008, "speech_count": 6 }, "geometry": { "type": "Point", "coordinates": [ 4.8952, 52.3702 ] } },
{ "type": "Feature", "properties": { "latitude": 52.52, "longitude": 13.405, "location": "Berlin", "year": 2008, "speech_count": 4 }, "geometry": { "type": "Point", "coordinates": [ 13.405, 52.52 ] } },
{ "type": "Feature", "properties": { "latitude": 53.2194, "longitude": 6.5665, "location": "Groningen", "year": 2008, "speech_count": 1 }, "geometry": { "type": "Point", "coordinates": [ 6.5665, 53.2194 ] } },
{ "type": "Feature", "properties": { "latitude": 53.3498, "longitude": -6.2603, "location": "Dublin", "year": 2008, "speech_count": 10 }, "geometry": { "type": "Point", "coordinates": [ -6.2603, 53.3498 ] } },
{ "type": "Feature", "properties": { "latitude": 53.4808, "longitude": -2.2426, "location": "Manchester", "year": 2008, "speech_count": 1 }, "geometry": { "type": "Point", "coordinates": [ -2.2426, 53.4808 ] } },
{ "type": "Feature", "properties": { "latitude": 53.5511, "longitude": 9.9937, "location": "Hamburg", "year": 2008, "speech_count": 1 }, "geometry": { "type": "Point", "coordinates": [ 9.9937, 53.5511 ] } },
{ "type": "Feature", "properties": { "latitude": 53.7998, "longitude": -1.5492, "location": "Leeds", "year": 2008, "speech_count": 1 }, "geometry": { "type": "Point", "coordinates": [ -1.5492, 53.7998 ] } },
{ "type": "Feature", "properties": { "latitude": 53.9583, "longitude": -1.0803, "location": "York", "year": 2008, "speech_count": 1 }, "geometry": { "type": "Point", "coordinates": [ -1.0803, 53.9583 ] } },
{ "type": "Feature", "properties": { "latitude": 55.3012, "longitude": 10.7989, "location": "Nyborg", "year": 2008, "speech_count": 1 }, "geometry": { "type": "Point", "coordinates": [ 10.7989, 55.3012 ] } },
{ "type": "Feature", "properties": { "latitude": 55.6059, "longitude": 13.0007, "location": "Malm", "year": 2008, "speech_count": 1 }, "geometry": { "type": "Point", "coordinates": [ 13.0007, 55.6059 ] } },
{ "type": "Feature", "properties": { "latitude": 55.6761, "longitude": 12.5683, "location": "Copenhagen", "year": 2008, "speech_count": 3 }, "geometry": { "type": "Point", "coordinates": [ 12.5683, 55.6761 ] } },
{ "type": "Feature", "properties": { "latitude": 55.7558, "longitude": 37.6173, "location": "Moscow", "year": 2008, "speech_count": 2 }, "geometry": { "type": "Point", "coordinates": [ 37.6173, 55.7558 ] } },
{ "type": "Feature", "properties": { "latitude": 59.1441, "longitude": 10.2301, "location": "Sandefjord", "year": 2008, "speech_count": 1 }, "geometry": { "type": "Point", "coordinates": [ 10.2301, 59.1441 ] } },
{ "type": "Feature", "properties": { "latitude": 59.2598, "longitude": 10.3701, "location": "Sanderstlen", "year": 2008, "speech_count": 1 }, "geometry": { "type": "Point", "coordinates": [ 10.3701, 59.2598 ] } },
{ "type": "Feature", "properties": { "latitude": 59.3293, "longitude": 18.0686, "location": "Stockholm", "year": 2008, "speech_count": 21 }, "geometry": { "type": "Point", "coordinates": [ 18.0686, 59.3293 ] } },
{ "type": "Feature", "properties": { "latitude": 59.3328, "longitude": 18.0645, "location": "Stockholm", "year": 2008, "speech_count": 1 }, "geometry": { "type": "Point", "coordinates": [ 18.0645, 59.3328 ] } },
{ "type": "Feature", "properties": { "latitude": 59.3345, "longitude": 18.0632, "location": "Stockholm", "year": 2008, "speech_count": 1 }, "geometry": { "type": "Point", "coordinates": [ 18.0632, 59.3345 ] } },
{ "type": "Feature", "properties": { "latitude": 59.3611, "longitude": 18.0342, "location": "Balsta", "year": 2008, "speech_count": 1 }, "geometry": { "type": "Point", "coordinates": [ 18.0342, 59.3611 ] } },
{ "type": "Feature", "properties": { "latitude": 59.4369, "longitude": 24.7535, "location": "Tallinn", "year": 2008, "speech_count": 1 }, "geometry": { "type": "Point", "coordinates": [ 24.7535, 59.4369 ] } },
{ "type": "Feature", "properties": { "latitude": 59.4372, "longitude": 24.7535, "location": "Tallinn", "year": 2008, "speech_count": 1 }, "geometry": { "type": "Point", "coordinates": [ 24.7535, 59.4372 ] } },
{ "type": "Feature", "properties": { "latitude": 59.9111, "longitude": 10.7522, "location": "Oslo", "year": 2008, "speech_count": 1 }, "geometry": { "type": "Point", "coordinates": [ 10.7522, 59.9111 ] } },
{ "type": "Feature", "properties": { "latitude": 59.9138, "longitude": 10.7522, "location": "Oslo", "year": 2008, "speech_count": 5 }, "geometry": { "type": "Point", "coordinates": [ 10.7522, 59.9138 ] } },
{ "type": "Feature", "properties": { "latitude": 59.9139, "longitude": 10.7522, "location": "Oslo", "year": 2008, "speech_count": 6 }, "geometry": { "type": "Point", "coordinates": [ 10.7522, 59.9139 ] } },
{ "type": "Feature", "properties": { "latitude": 60.1699, "longitude": 24.9384, "location": "Helsinki", "year": 2008, "speech_count": 1 }, "geometry": { "type": "Point", "coordinates": [ 24.9384, 60.1699 ] } },
{ "type": "Feature", "properties": { "latitude": 64.1265, "longitude": -21.8954, "location": "Reykjavik", "year": 2008, "speech_count": 1 }, "geometry": { "type": "Point", "coordinates": [ -21.8954, 64.1265 ] } },
{ "type": "Feature", "properties": { "latitude": 64.1353, "longitude": -21.9334, "location": "Reykjavik", "year": 2008, "speech_count": 3 }, "geometry": { "type": "Point", "coordinates": [ -21.9334, 64.1353 ] } }
]
}
