{
"type": "FeatureCollection",
"name": "speeches_2015",
"crs": { "type": "name", "properties": { "name": "urn:ogc:def:crs:OGC:1.3:CRS84" } },
"features": [
{ "type": "Feature", "properties": { "latitude": -43.532, "longitude": 172.6362, "location": "Christchurch", "year": 2015, "speech_count": 1 }, "geometry": { "type": "Point", "coordinates": [ 172.6362, -43.532 ] } },
{ "type": "Feature", "properties": { "latitude": -42.8794, "longitude": 147.3294, "location": "Hobart", "year": 2015, "speech_count": 1 }, "geometry": { "type": "Point", "coordinates": [ 147.3294, -42.8794 ] } },
{ "type": "Feature", "properties": { "latitude": -38.1394, "longitude": 176.2481, "location": "Rotorua", "year": 2015, "speech_count": 1 }, "geometry": { "type": "Point", "coordinates": [ 176.2481, -38.1394 ] } },
{ "type": "Feature", "properties": { "latitude": -37.8141, "longitude": 144.9633, "location": "Melbourne", "year": 2015, "speech_count": 1 }, "geometry": { "type": "Point", "coordinates": [ 144.9633, -37.8141 ] } },
{ "type": "Feature", "properties": { "latitude": -37.814, "longitude": 144.9633, "location": "Melbourne", "year": 2015, "speech_count": 1 }, "geometry": { "type": "Point", "coordinates": [ 144.9633, -37.814 ] } },
{ "type": "Feature", "properties": { "latitude": -37.8136, "longitude": 144.9631, "location": "Melbourne", "year": 2015, "speech_count": 2 }, "geometry": { "type": "Point", "coordinates": [ 144.9631, -37.8136 ] } },
{ "type": "Feature", "properties": { "latitude": -37.6883, "longitude": 176.1667, "location": "Tauranga", "year": 2015, "speech_count": 1 }, "geometry": { "type": "Point", "coordinates": [ 176.1667, -37.6883 ] } },
{ "type": "Feature", "properties": { "latitude": -36.8485, "longitude": 174.7633, "location": "Auckland", "year": 2015, "speech_count": 1 }, "geometry": { "type": "Point", "coordinates": [ 174.7633, -36.8485 ] } },
{ "type": "Feature", "properties": { "latitude": -36.84846, "longitude": 174.76333, "location": "Auckland", "year": 2015, "speech_count": 1 }, "geometry": { "type": "Point", "coordinates": [ 174.76333, -36.84846 ] } },
{ "type": "Feature", "properties": { "latitude": -35.2809, "longitude": 149.13, "location": "Canberra", "year": 2015, "speech_count": 2 }, "geometry": { "type": "Point", "coordinates": [ 149.13, -35.2809 ] } },
{ "type": "Feature", "properties": { "latitude": -34.4243, "longitude": 150.8936, "location": "Sydney", "year": 2015, "speech_count": 1 }, "geometry": { "type": "Point", "coordinates": [ 150.8936, -34.4243 ] } },
{ "type": "Feature", "properties": { "latitude": -33.9258, "longitude": 18.4232, "location": "Cape Town", "year": 2015, "speech_count": 1 }, "geometry": { "type": "Point", "coordinates": [ 18.4232, -33.9258 ] } },
{ "type": "Feature", "properties": { "latitude": -33.9249, "longitude": 18.4241, "location": "Cape Town", "year": 2015, "speech_count": 5 }, "geometry": { "type": "Point", "coordinates": [ 18.4241, -33.9249 ] } },
{ "type": "Feature", "properties": { "latitude": -33.86882, "longitude": 151.20929, "location": "Sydney", "year": 2015, "speech_count": 1 }, "geometry": { "type": "Point", "coordinates": [ 151.20929, -33.86882 ] } },
{ "type": "Feature", "properties": { "latitude": -33.8688, "longitude": 151.2093, "location": "Sydney", "year": 2015, "speech_count": 11 }, "geometry": { "type": "Point", "coordinates": [ 151.2093, -33.8688 ] } },
{ "type": "Feature", "properties": { "latitude": -33.8679, "longitude": 151.2073, "location": "Sydney", "year": 2015, "speech_count": 4 }, "geometry": { "type": "Point", "coordinates": [ 151.2073, -33.8679 ] } },
{ "type": "Feature", "properties": { "latitude": -33.8678, "longitude": 151.2073, "location": "Sydney", "year": 2015, "speech_count": 1 }, "geometry": { "type": "Point", "coordinates": [ 151.2073, -33.8678 ] } },
{ "type": "Feature", "properties": { "latitude": -33.8675, "longitude": 151.207, "location": "Sydney", "year": 2015, "speech_count": 1 }, "geometry": { "type": "Point", "coordinates": [ 151.207, -33.8675 ] } },
{ "type": "Feature", "properties": { "latitude": -33.8651, "longitude": 151.2094, "location": "Sydney", "year": 2015, "speech_count": 1 }, "geometry": { "type": "Point", "coordinates": [ 151.2094, -33.8651 ] } },
{ "type": "Feature", "properties": { "latitude": -33.4489, "longitude": -70.6693, "location": "Santiago", "year": 2015, "speech_count": 5 }, "geometry": { "type": "Point", "coordinates": [ -70.6693, -33.4489 ] } },
{ "type": "Feature", "properties": { "latitude": -31.9522, "longitude": 115.8614, "location": "Perth", "year": 2015, "speech_count": 2 }, "geometry": { "type": "Point", "coordinates": [ 115.8614, -31.9522 ] } },
{ "type": "Feature", "properties": { "latitude": -28.0167, "longitude": 153.4167, "location": "Gold Coast", "year": 2015, "speech_count": 1 }, "geometry": { "type": "Point", "coordinates": [ 153.4167, -28.0167 ] } },
{ "type": "Feature", "properties": { "latitude": -27.4698, "longitude": 153.0251, "location": "Brisbane", "year": 2015, "speech_count": 1 }, "geometry": { "type": "Point", "coordinates": [ 153.0251, -27.4698 ] } },
{ "type": "Feature", "properties": { "latitude": -27.4678, "longitude": 153.0281, "location": "Brisbane", "year": 2015, "speech_count": 1 }, "geometry": { "type": "Point", "coordinates": [ 153.0281, -27.4678 ] } },
{ "type": "Feature", "properties": { "latitude": -26.2041, "longitude": 28.0473, "location": "Johannesburg", "year": 2015, "speech_count": 11 }, "geometry": { "type": "Point", "coordinates": [ 28.0473, -26.2041 ] } },
{ "type": "Feature", "properties": { "latitude": -26.0956, "longitude": 28.0353, "location": "Sandton", "year": 2015, "speech_count": 1 }, "geometry": { "type": "Point", "coordinates": [ 28.0353, -26.0956 ] } },
{ "type": "Feature", "properties": { "latitude": -26.0225, "longitude": 27.9492, "location": "Muldersdrift", "year": 2015, "speech_count": 1 }, "geometry": { "type": "Point", "coordinates": [ 27.9492, -26.0225 ] } },
{ "type": "Feature", "properties": { "latitude": -25.7461, "longitude": 28.1881, "location": "Pretoria", "year": 2015, "speech_count": 1 }, "geometry": { "type": "Point", "coordinates": [ 28.1881, -25.7461 ] } },
{ "type": "Feature", "properties": { "latitude": -25.7461, "longitude": 28.1882, "location": "Pretoria", "year": 2015, "speech_count": 1 }, "geometry": { "type": "Point", "coordinates": [ 28.1882, -25.7461 ] } },
{ "type": "Feature", "properties": { "latitude": -25.7461, "longitude": 28.1889, "location": "Pretoria", "year": 2015, "speech_count": 1 }, "geometry": { "type": "Point", "coordinates": [ 28.1889, -25.7461 ] } },
{ "type": "Feature", "properties": { "latitude": -24.6501, "longitude": 25.9083, "location": "Gaborone", "year": 2015, "speech_count": 1 }, "geometry": { "type": "Point", "coordinates": [ 25.9083, -24.6501 ] } },
{ "type": "Feature", "properties": { "latitude": -22.9068, "longitude": -43.1729, "location": "Rio de Janeiro", "year": 2015, "speech_count": 1 }, "geometry": { "type": "Point", "coordinates": [ -43.1729, -22.9068 ] } },
{ "type": "Feature", "properties": { "latitude": -22.5749, "longitude": 17.0837, "location": "Windhoek", "year": 2015, "speech_count": 1 }, "geometry": { "type": "Point", "coordinates": [ 17.0837, -22.5749 ] } },
{ "type": "Feature", "properties": { "latitude": -20.1653, "longitude": 57.3575, "location": "Flic en Flac", "year": 2015, "speech_count": 1 }, "geometry": { "type": "Point", "coordinates": [ 57.3575, -20.1653 ] } },
{ "type": "Feature", "properties": { "latitude": -18.1416, "longitude": 178.4419, "location": "Suva", "year": 2015, "speech_count": 5 }, "geometry": { "type": "Point", "coordinates": [ 178.4419, -18.1416 ] } },
{ "type": "Feature", "properties": { "latitude": -18.1336, "longitude": 178.435, "location": "Suva", "year": 2015, "speech_count": 1 }, "geometry": { "type": "Point", "coordinates": [ 178.435, -18.1336 ] } },
{ "type": "Feature", "properties": { "latitude": -18.1333, "longitude": 177.4167, "location": "Nasinu", "year": 2015, "speech_count": 1 }, "geometry": { "type": "Point", "coordinates": [ 177.4167, -18.1333 ] } },
{ "type": "Feature", "properties": { "latitude": -12.0464, "longitude": -77.0428, "location": "Lima", "year": 2015, "speech_count": 5 }, "geometry": { "type": "Point", "coordinates": [ -77.0428, -12.0464 ] } },
{ "type": "Feature", "properties": { "latitude": -9.4439, "longitude": 147.1764, "location": "Port Moresby", "year": 2015, "speech_count": 1 }, "geometry": { "type": "Point", "coordinates": [ 147.1764, -9.4439 ] } },
{ "type": "Feature", "properties": { "latitude": -9.4333, "longitude": 159.95, "location": "Honiara", "year": 2015, "speech_count": 1 }, "geometry": { "type": "Point", "coordinates": [ 159.95, -9.4333 ] } },
{ "type": "Feature", "properties": { "latitude": -8.3779, "longitude": 115.1326, "location": "Bali", "year": 2015, "speech_count": 1 }, "geometry": { "type": "Point", "coordinates": [ 115.1326, -8.3779 ] } },
{ "type": "Feature", "properties": { "latitude": -6.2146, "longitude": 106.8451, "location": "Jakarta", "year": 2015, "speech_count": 1 }, "geometry": { "type": "Point", "coordinates": [ 106.8451, -6.2146 ] } },
{ "type": "Feature", "properties": { "latitude": -6.1754, "longitude": 106.8272, "location": "Jakarta", "year": 2015, "speech_count": 1 }, "geometry": { "type": "Point", "coordinates": [ 106.8272, -6.1754 ] } },
{ "type": "Feature", "properties": { "latitude": -6.1751, "longitude": 106.865, "location": "Jakarta", "year": 2015, "speech_count": 9 }, "geometry": { "type": "Point", "coordinates": [ 106.865, -6.1751 ] } },
{ "type": "Feature", "properties": { "latitude": -4.0576, "longitude": 39.6682, "location": "Mombasa", "year": 2015, "speech_count": 1 }, "geometry": { "type": "Point", "coordinates": [ 39.6682, -4.0576 ] } },
{ "type": "Feature", "properties": { "latitude": -3.37, "longitude": 36.67, "location": "Arusha", "year": 2015, "speech_count": 1 }, "geometry": { "type": "Point", "coordinates": [ 36.67, -3.37 ] } },
{ "type": "Feature", "properties": { "latitude": -3.3695, "longitude": 36.6828, "location": "Arusha", "year": 2015, "speech_count": 1 }, "geometry": { "type": "Point", "coordinates": [ 36.6828, -3.3695 ] } },
{ "type": "Feature", "properties": { "latitude": -1.2921, "longitude": 36.8219, "location": "Nairobi", "year": 2015, "speech_count": 4 }, "geometry": { "type": "Point", "coordinates": [ 36.8219, -1.2921 ] } },
{ "type": "Feature", "properties": { "latitude": -1.2833, "longitude": 36.8167, "location": "Nairobi", "year": 2015, "speech_count": 2 }, "geometry": { "type": "Point", "coordinates": [ 36.8167, -1.2833 ] } },
{ "type": "Feature", "properties": { "latitude": -0.6035, "longitude": 30.634, "location": "Mbarara", "year": 2015, "speech_count": 1 }, "geometry": { "type": "Point", "coordinates": [ 30.634, -0.6035 ] } },
{ "type": "Feature", "properties": { "latitude": -0.3236, "longitude": 32.5963, "location": "Lugogo", "year": 2015, "speech_count": 1 }, "geometry": { "type": "Point", "coordinates": [ 32.5963, -0.3236 ] } },
{ "type": "Feature", "properties": { "latitude": 0.3155, "longitude": 32.5641, "location": "Kampala", "year": 2015, "speech_count": 1 }, "geometry": { "type": "Point", "coordinates": [ 32.5641, 0.3155 ] } },
{ "type": "Feature", "properties": { "latitude": 0.3155, "longitude": 32.5699, "location": "Kampala", "year": 2015, "speech_count": 1 }, "geometry": { "type": "Point", "coordinates": [ 32.5699, 0.3155 ] } },
{ "type": "Feature", "properties": { "latitude": 0.3156, "longitude": 32.5656, "location": "Kampala", "year": 2015, "speech_count": 1 }, "geometry": { "type": "Point", "coordinates": [ 32.5656, 0.3156 ] } },
{ "type": "Feature", "properties": { "latitude": 0.3156, "longitude": 32.5778, "location": "Kampala", "year": 2015, "speech_count": 1 }, "geometry": { "type": "Point", "coordinates": [ 32.5778, 0.3156 ] } },
{ "type": "Feature", "properties": { "latitude": 0.3156, "longitude": 32.5811, "location": "Kampala", "year": 2015, "speech_count": 1 }, "geometry": { "type": "Point", "coordinates": [ 32.5811, 0.3156 ] } },
{ "type": "Feature", "properties": { "latitude": 0.3157, "longitude": 32.5603, "location": "Kampala", "year": 2015, "speech_count": 1 }, "geometry": { "type": "Point", "coordinates": [ 32.5603, 0.3157 ] } },
{ "type": "Feature", "properties": { "latitude": 0.3157, "longitude": 32.5637, "location": "Kampala", "year": 2015, "speech_count": 1 }, "geometry": { "type": "Point", "coordinates": [ 32.5637, 0.3157 ] } },
{ "type": "Feature", "properties": { "latitude": 0.3157, "longitude": 32.5667, "location": "Kampala", "year": 2015, "speech_count": 1 }, "geometry": { "type": "Point", "coordinates": [ 32.5667, 0.3157 ] } },
{ "type": "Feature", "properties": { "latitude": 1.2833, "longitude": 103.8331, "location": "Singapore", "year": 2015, "speech_count": 5 }, "geometry": { "type": "Point", "coordinates": [ 103.8331, 1.2833 ] } },
{ "type": "Feature", "properties": { "latitude": 1.2833, "longitude": 103.8333, "location": "Singapore", "year": 2015, "speech_count": 3 }, "geometry": { "type": "Point", "coordinates": [ 103.8333, 1.2833 ] } },
{ "type": "Feature", "properties": { "latitude": 1.2833, "longitude": 103.8557, "location": "Singapore", "year": 2015, "speech_count": 1 }, "geometry": { "type": "Point", "coordinates": [ 103.8557, 1.2833 ] } },
{ "type": "Feature", "properties": { "latitude": 1.2894, "longitude": 103.85, "location": "Singapore", "year": 2015, "speech_count": 4 }, "geometry": { "type": "Point", "coordinates": [ 103.85, 1.2894 ] } },
{ "type": "Feature", "properties": { "latitude": 1.2894, "longitude": 103.8501, "location": "Singapore", "year": 2015, "speech_count": 3 }, "geometry": { "type": "Point", "coordinates": [ 103.8501, 1.2894 ] } },
{ "type": "Feature", "properties": { "latitude": 1.3521, "longitude": 103.8198, "location": "Singapore", "year": 2015, "speech_count": 1 }, "geometry": { "type": "Point", "coordinates": [ 103.8198, 1.3521 ] } },
{ "type": "Feature", "properties": { "latitude": 3.139, "longitude": 101.6863, "location": "Kuala Lumpur", "year": 2015, "speech_count": 2 }, "geometry": { "type": "Point", "coordinates": [ 101.6863, 3.139 ] } },
{ "type": "Feature", "properties": { "latitude": 3.139, "longitude": 101.6869, "location": "Kuala Lumpur", "year": 2015, "speech_count": 12 }, "geometry": { "type": "Point", "coordinates": [ 101.6869, 3.139 ] } },
{ "type": "Feature", "properties": { "latitude": 3.1408, "longitude": 101.6868, "location": "Kuala Lumpur", "year": 2015, "speech_count": 1 }, "geometry": { "type": "Point", "coordinates": [ 101.6868, 3.1408 ] } },
{ "type": "Feature", "properties": { "latitude": 3.1408, "longitude": 101.6869, "location": "Kuala Lumpur", "year": 2015, "speech_count": 1 }, "geometry": { "type": "Point", "coordinates": [ 101.6869, 3.1408 ] } },
{ "type": "Feature", "properties": { "latitude": 3.1408, "longitude": 101.6931, "location": "Kuala Lumpur", "year": 2015, "speech_count": 11 }, "geometry": { "type": "Point", "coordinates": [ 101.6931, 3.1408 ] } },
{ "type": "Feature", "properties": { "latitude": 3.1408, "longitude": 101.6933, "location": "Kuala Lumpur", "year": 2015, "speech_count": 1 }, "geometry": { "type": "Point", "coordinates": [ 101.6933, 3.1408 ] } },
{ "type": "Feature", "properties": { "latitude": 3.140853, "longitude": 101.693207, "location": "Kuala Lumpur", "year": 2015, "speech_count": 1 }, "geometry": { "type": "Point", "coordinates": [ 101.693207, 3.140853 ] } },
{ "type": "Feature", "properties": { "latitude": 3.1505, "longitude": 101.7122, "location": "Kuala Lumpur", "year": 2015, "speech_count": 1 }, "geometry": { "type": "Point", "coordinates": [ 101.7122, 3.1505 ] } },
{ "type": "Feature", "properties": { "latitude": 6.9319, "longitude": 79.8478, "location": "Colombo", "year": 2015, "speech_count": 2 }, "geometry": { "type": "Point", "coordinates": [ 79.8478, 6.9319 ] } },
{ "type": "Feature", "properties": { "latitude": 6.9344, "longitude": 79.8428, "location": "Colombo", "year": 2015, "speech_count": 1 }, "geometry": { "type": "Point", "coordinates": [ 79.8428, 6.9344 ] } },
{ "type": "Feature", "properties": { "latitude": 8.5241, "longitude": 76.9364, "location": "Thiruvananthapuram", "year": 2015, "speech_count": 1 }, "geometry": { "type": "Point", "coordinates": [ 76.9364, 8.5241 ] } },
{ "type": "Feature", "properties": { "latitude": 10.3958, "longitude": -75.4995, "location": "Cartagena", "year": 2015, "speech_count": 1 }, "geometry": { "type": "Point", "coordinates": [ -75.4995, 10.3958 ] } },
{ "type": "Feature", "properties": { "latitude": 10.6501, "longitude": -61.5167, "location": "Port-of-Spain", "year": 2015, "speech_count": 1 }, "geometry": { "type": "Point", "coordinates": [ -61.5167, 10.6501 ] } },
{ "type": "Feature", "properties": { "latitude": 10.9785, "longitude": 79.3885, "location": "Kumbakonam", "year": 2015, "speech_count": 1 }, "geometry": { "type": "Point", "coordinates": [ 79.3885, 10.9785 ] } },
{ "type": "Feature", "properties": { "latitude": 12.0534, "longitude": -61.7495, "location": "Grenada", "year": 2015, "speech_count": 1 }, "geometry": { "type": "Point", "coordinates": [ -61.7495, 12.0534 ] } },
{ "type": "Feature", "properties": { "latitude": 12.1076, "longitude": -68.9306, "location": "Willemstad", "year": 2015, "speech_count": 1 }, "geometry": { "type": "Point", "coordinates": [ -68.9306, 12.1076 ] } },
{ "type": "Feature", "properties": { "latitude": 12.8703, "longitude": 74.8806, "location": "Mangalore", "year": 2015, "speech_count": 1 }, "geometry": { "type": "Point", "coordinates": [ 74.8806, 12.8703 ] } },
{ "type": "Feature", "properties": { "latitude": 12.9716, "longitude": 77.5946, "location": "Bangalore", "year": 2015, "speech_count": 2 }, "geometry": { "type": "Point", "coordinates": [ 77.5946, 12.9716 ] } },
{ "type": "Feature", "properties": { "latitude": 13.0928, "longitude": -59.6152, "location": "Hastings, Christ Church", "year": 2015, "speech_count": 1 }, "geometry": { "type": "Point", "coordinates": [ -59.6152, 13.0928 ] } },
{ "type": "Feature", "properties": { "latitude": 13.0931, "longitude": -59.6165, "location": "Bridgetown", "year": 2015, "speech_count": 1 }, "geometry": { "type": "Point", "coordinates": [ -59.6165, 13.0931 ] } },
{ "type": "Feature", "properties": { "latitude": 13.1, "longitude": -59.6167, "location": "Bridgetown", "year": 2015, "speech_count": 1 }, "geometry": { "type": "Point", "coordinates": [ -59.6167, 13.1 ] } },
{ "type": "Feature", "properties": { "latitude": 13.1035, "longitude": -59.6162, "location": "Bridgetown", "year": 2015, "speech_count": 1 }, "geometry": { "type": "Point", "coordinates": [ -59.6162, 13.1035 ] } },
{ "type": "Feature", "properties": { "latitude": 13.1036, "longitude": -59.6158, "location": "Bridgetown", "year": 2015, "speech_count": 1 }, "geometry": { "type": "Point", "coordinates": [ -59.6158, 13.1036 ] } },
{ "type": "Feature", "properties": { "latitude": 13.1036, "longitude": -59.6139, "location": "Bridgetown", "year": 2015, "speech_count": 1 }, "geometry": { "type": "Point", "coordinates": [ -59.6139, 13.1036 ] } },
{ "type": "Feature", "properties": { "latitude": 13.4443, "longitude": 144.7937, "location": "Guam", "year": 2015, "speech_count": 1 }, "geometry": { "type": "Point", "coordinates": [ 144.7937, 13.4443 ] } },
{ "type": "Feature", "properties": { "latitude": 13.7563, "longitude": 100.5018, "location": "Bangkok", "year": 2015, "speech_count": 5 }, "geometry": { "type": "Point", "coordinates": [ 100.5018, 13.7563 ] } },
{ "type": "Feature", "properties": { "latitude": 14.5547, "longitude": 121.0244, "location": "Makati", "year": 2015, "speech_count": 13 }, "geometry": { "type": "Point", "coordinates": [ 121.0244, 14.5547 ] } },
{ "type": "Feature", "properties": { "latitude": 14.5833, "longitude": 120.9667, "location": "Malate", "year": 2015, "speech_count": 1 }, "geometry": { "type": "Point", "coordinates": [ 120.9667, 14.5833 ] } },
{ "type": "Feature", "properties": { "latitude": 14.5833, "longitude": 120.9667, "location": "Manila", "year": 2015, "speech_count": 5 }, "geometry": { "type": "Point", "coordinates": [ 120.9667, 14.5833 ] } },
{ "type": "Feature", "properties": { "latitude": 14.5995, "longitude": 120.9842, "location": "Manila", "year": 2015, "speech_count": 14 }, "geometry": { "type": "Point", "coordinates": [ 120.9842, 14.5995 ] } },
{ "type": "Feature", "properties": { "latitude": 15.2993, "longitude": 73.9178, "location": "Goa", "year": 2015, "speech_count": 1 }, "geometry": { "type": "Point", "coordinates": [ 73.9178, 15.2993 ] } },
{ "type": "Feature", "properties": { "latitude": 15.2993, "longitude": 73.9579, "location": "Goa", "year": 2015, "speech_count": 1 }, "geometry": { "type": "Point", "coordinates": [ 73.9579, 15.2993 ] } },
{ "type": "Feature", "properties": { "latitude": 16.7839, "longitude": 96.1586, "location": "Yangon", "year": 2015, "speech_count": 1 }, "geometry": { "type": "Point", "coordinates": [ 96.1586, 16.7839 ] } },
{ "type": "Feature", "properties": { "latitude": 16.7839, "longitude": 96.1589, "location": "Yangon, Myanmar", "year": 2015, "speech_count": 1 }, "geometry": { "type": "Point", "coordinates": [ 96.1589, 16.7839 ] } },
{ "type": "Feature", "properties": { "latitude": 17.385, "longitude": 78.4867, "location": "Hyderabad", "year": 2015, "speech_count": 2 }, "geometry": { "type": "Point", "coordinates": [ 78.4867, 17.385 ] } },
{ "type": "Feature", "properties": { "latitude": 18.0201, "longitude": -76.7923, "location": "Kingston", "year": 2015, "speech_count": 1 }, "geometry": { "type": "Point", "coordinates": [ -76.7923, 18.0201 ] } },
{ "type": "Feature", "properties": { "latitude": 18.5204, "longitude": 73.8567, "location": "Pune", "year": 2015, "speech_count": 2 }, "geometry": { "type": "Point", "coordinates": [ 73.8567, 18.5204 ] } },
{ "type": "Feature", "properties": { "latitude": 19.0759, "longitude": 72.8777, "location": "Bombay", "year": 2015, "speech_count": 2 }, "geometry": { "type": "Point", "coordinates": [ 72.8777, 19.0759 ] } },
{ "type": "Feature", "properties": { "latitude": 19.0759837, "longitude": 72.8776559, "location": "Bombay", "year": 2015, "speech_count": 5 }, "geometry": { "type": "Point", "coordinates": [ 72.8776559, 19.0759837 ] } },
{ "type": "Feature", "properties": { "latitude": 19.076, "longitude": 72.8777, "location": "Bombay", "year": 2015, "speech_count": 15 }, "geometry": { "type": "Point", "coordinates": [ 72.8777, 19.076 ] } },
{ "type": "Feature", "properties": { "latitude": 19.4326, "longitude": -99.1332, "location": "Mexico City", "year": 2015, "speech_count": 4 }, "geometry": { "type": "Point", "coordinates": [ -99.1332, 19.4326 ] } },
{ "type": "Feature", "properties": { "latitude": 21.1458, "longitude": 79.0882, "location": "Nagpur", "year": 2015, "speech_count": 1 }, "geometry": { "type": "Point", "coordinates": [ 79.0882, 21.1458 ] } },
{ "type": "Feature", "properties": { "latitude": 22.2783, "longitude": 114.1747, "location": "Hong Kong", "year": 2015, "speech_count": 1 }, "geometry": { "type": "Point", "coordinates": [ 114.1747, 22.2783 ] } },
{ "type": "Feature", "properties": { "latitude": 22.2855, "longitude": 114.1577, "location": "Hong Kong", "year": 2015, "speech_count": 3 }, "geometry": { "type": "Point", "coordinates": [ 114.1577, 22.2855 ] } },
{ "type": "Feature", "properties": { "latitude": 22.3027, "longitude": 114.1777, "location": "Hong Kong", "year": 2015, "speech_count": 2 }, "geometry": { "type": "Point", "coordinates": [ 114.1777, 22.3027 ] } },
{ "type": "Feature", "properties": { "latitude": 22.3193, "longitude": 114.1694, "location": "Hong Kong", "year": 2015, "speech_count": 4 }, "geometry": { "type": "Point", "coordinates": [ 114.1694, 22.3193 ] } },
{ "type": "Feature", "properties": { "latitude": 22.3964, "longitude": 114.1095, "location": "Hong Kong", "year": 2015, "speech_count": 2 }, "geometry": { "type": "Point", "coordinates": [ 114.1095, 22.3964 ] } },
{ "type": "Feature", "properties": { "latitude": 22.572646, "longitude": 88.363895, "location": "Calcutta", "year": 2015, "speech_count": 1 }, "geometry": { "type": "Point", "coordinates": [ 88.363895, 22.572646 ] } },
{ "type": "Feature", "properties": { "latitude": 22.7196, "longitude": 75.8577, "location": "Indore", "year": 2015, "speech_count": 1 }, "geometry": { "type": "Point", "coordinates": [ 75.8577, 22.7196 ] } },
{ "type": "Feature", "properties": { "latitude": 24.8607, "longitude": 67.0011, "location": "Karachi", "year": 2015, "speech_count": 1 }, "geometry": { "type": "Point", "coordinates": [ 67.0011, 24.8607 ] } },
{ "type": "Feature", "properties": { "latitude": 25.2522, "longitude": 55.2822, "location": "Dubai", "year": 2015, "speech_count": 1 }, "geometry": { "type": "Point", "coordinates": [ 55.2822, 25.2522 ] } },
{ "type": "Feature", "properties": { "latitude": 27.7172, "longitude": 85.324, "location": "Kathmandu", "year": 2015, "speech_count": 1 }, "geometry": { "type": "Point", "coordinates": [ 85.324, 27.7172 ] } },
{ "type": "Feature", "properties": { "latitude": 28.1233, "longitude": -15.4353, "location": "Las Palmas", "year": 2015, "speech_count": 1 }, "geometry": { "type": "Point", "coordinates": [ -15.4353, 28.1233 ] } },
{ "type": "Feature", "properties": { "latitude": 28.6139, "longitude": 77.2089, "location": "Delhi", "year": 2015, "speech_count": 2 }, "geometry": { "type": "Point", "coordinates": [ 77.2089, 28.6139 ] } },
{ "type": "Feature", "properties": { "latitude": 28.6139, "longitude": 77.209, "location": "Delhi", "year": 2015, "speech_count": 2 }, "geometry": { "type": "Point", "coordinates": [ 77.209, 28.6139 ] } },
{ "type": "Feature", "properties": { "latitude": 28.6448, "longitude": 77.2167, "location": "Delhi", "year": 2015, "speech_count": 1 }, "geometry": { "type": "Point", "coordinates": [ 77.2167, 28.6448 ] } },
{ "type": "Feature", "properties": { "latitude": 29.5578, "longitude": 34.9489, "location": "Eilat", "year": 2015, "speech_count": 1 }, "geometry": { "type": "Point", "coordinates": [ 34.9489, 29.5578 ] } },
{ "type": "Feature", "properties": { "latitude": 31.2304, "longitude": 121.4737, "location": "Shanghai", "year": 2015, "speech_count": 2 }, "geometry": { "type": "Point", "coordinates": [ 121.4737, 31.2304 ] } },
{ "type": "Feature", "properties": { "latitude": 31.7587, "longitude": -106.4869, "location": "El Paso", "year": 2015, "speech_count": 1 }, "geometry": { "type": "Point", "coordinates": [ -106.4869, 31.7587 ] } },
{ "type": "Feature", "properties": { "latitude": 31.7683, "longitude": 35.2137, "location": "Jerusalem", "year": 2015, "speech_count": 3 }, "geometry": { "type": "Point", "coordinates": [ 35.2137, 31.7683 ] } },
{ "type": "Feature", "properties": { "latitude": 32.0801, "longitude": 34.7802, "location": "Tel Aviv", "year": 2015, "speech_count": 1 }, "geometry": { "type": "Point", "coordinates": [ 34.7802, 32.0801 ] } },
{ "type": "Feature", "properties": { "latitude": 32.0853, "longitude": 34.7818, "location": "Tel Aviv", "year": 2015, "speech_count": 4 }, "geometry": { "type": "Point", "coordinates": [ 34.7818, 32.0853 ] } },
{ "type": "Feature", "properties": { "latitude": 32.7767, "longitude": -96.797, "location": "Dallas", "year": 2015, "speech_count": 1 }, "geometry": { "type": "Point", "coordinates": [ -96.797, 32.7767 ] } },
{ "type": "Feature", "properties": { "latitude": 32.7897, "longitude": 130.7417, "location": "Kumamoto", "year": 2015, "speech_count": 1 }, "geometry": { "type": "Point", "coordinates": [ 130.7417, 32.7897 ] } },
{ "type": "Feature", "properties": { "latitude": 33.7294, "longitude": 73.0931, "location": "Islamabad", "year": 2015, "speech_count": 1 }, "geometry": { "type": "Point", "coordinates": [ 73.0931, 33.7294 ] } },
{ "type": "Feature", "properties": { "latitude": 33.749, "longitude": -84.388, "location": "Atlanta", "year": 2015, "speech_count": 1 }, "geometry": { "type": "Point", "coordinates": [ -84.388, 33.749 ] } },
{ "type": "Feature", "properties": { "latitude": 33.8008, "longitude": -84.1697, "location": "Stone Mountain, Georgia", "year": 2015, "speech_count": 1 }, "geometry": { "type": "Point", "coordinates": [ -84.1697, 33.8008 ] } },
{ "type": "Feature", "properties": { "latitude": 33.8417, "longitude": 132.7651, "location": "Ehime", "year": 2015, "speech_count": 1 }, "geometry": { "type": "Point", "coordinates": [ 132.7651, 33.8417 ] } },
{ "type": "Feature", "properties": { "latitude": 33.8869, "longitude": 35.5134, "location": "Beirut", "year": 2015, "speech_count": 1 }, "geometry": { "type": "Point", "coordinates": [ 35.5134, 33.8869 ] } },
{ "type": "Feature", "properties": { "latitude": 34.0286, "longitude": 22.4672, "location": "George", "year": 2015, "speech_count": 1 }, "geometry": { "type": "Point", "coordinates": [ 22.4672, 34.0286 ] } },
{ "type": "Feature", "properties": { "latitude": 34.6617, "longitude": 133.9351, "location": "Okayama", "year": 2015, "speech_count": 1 }, "geometry": { "type": "Point", "coordinates": [ 133.9351, 34.6617 ] } },
{ "type": "Feature", "properties": { "latitude": 34.6851, "longitude": 135.8049, "location": "Nara", "year": 2015, "speech_count": 1 }, "geometry": { "type": "Point", "coordinates": [ 135.8049, 34.6851 ] } },
{ "type": "Feature", "properties": { "latitude": 34.6937, "longitude": 135.5022, "location": "Osaka", "year": 2015, "speech_count": 1 }, "geometry": { "type": "Point", "coordinates": [ 135.5022, 34.6937 ] } },
{ "type": "Feature", "properties": { "latitude": 34.7304, "longitude": 136.5086, "location": "Mie", "year": 2015, "speech_count": 1 }, "geometry": { "type": "Point", "coordinates": [ 136.5086, 34.7304 ] } },
{ "type": "Feature", "properties": { "latitude": 35.0213, "longitude": 135.7551, "location": "Kyoto", "year": 2015, "speech_count": 1 }, "geometry": { "type": "Point", "coordinates": [ 135.7551, 35.0213 ] } },
{ "type": "Feature", "properties": { "latitude": 35.1667, "longitude": 33.3667, "location": "Nicosia", "year": 2015, "speech_count": 1 }, "geometry": { "type": "Point", "coordinates": [ 33.3667, 35.1667 ] } },
{ "type": "Feature", "properties": { "latitude": 35.1796, "longitude": 129.0756, "location": "Busan", "year": 2015, "speech_count": 1 }, "geometry": { "type": "Point", "coordinates": [ 129.0756, 35.1796 ] } },
{ "type": "Feature", "properties": { "latitude": 35.1814, "longitude": 136.9064, "location": "Nagoya", "year": 2015, "speech_count": 1 }, "geometry": { "type": "Point", "coordinates": [ 136.9064, 35.1814 ] } },
{ "type": "Feature", "properties": { "latitude": 35.4478, "longitude": 139.6425, "location": "Kanagawa", "year": 2015, "speech_count": 1 }, "geometry": { "type": "Point", "coordinates": [ 139.6425, 35.4478 ] } },
{ "type": "Feature", "properties": { "latitude": 35.4722, "longitude": 133.0505, "location": "Shimane", "year": 2015, "speech_count": 1 }, "geometry": { "type": "Point", "coordinates": [ 133.0505, 35.4722 ] } },
{ "type": "Feature", "properties": { "latitude": 35.6639, "longitude": 138.5552, "location": "Kofu, Yamanashi Prefecture", "year": 2015, "speech_count": 1 }, "geometry": { "type": "Point", "coordinates": [ 138.5552, 35.6639 ] } },
{ "type": "Feature", "properties": { "latitude": 35.6895, "longitude": 139.6917, "location": "Tokyo", "year": 2015, "speech_count": 10 }, "geometry": { "type": "Point", "coordinates": [ 139.6917, 35.6895 ] } },
{ "type": "Feature", "properties": { "latitude": 35.7721, "longitude": -78.6386, "location": "Raleigh", "year": 2015, "speech_count": 1 }, "geometry": { "type": "Point", "coordinates": [ -78.6386, 35.7721 ] } },
{ "type": "Feature", "properties": { "latitude": 35.8997, "longitude": 14.5147, "location": "Valletta", "year": 2015, "speech_count": 1 }, "geometry": { "type": "Point", "coordinates": [ 14.5147, 35.8997 ] } },
{ "type": "Feature", "properties": { "latitude": 35.9078, "longitude": 14.4953, "location": "Saint Julian's", "year": 2015, "speech_count": 1 }, "geometry": { "type": "Point", "coordinates": [ 14.4953, 35.9078 ] } },
{ "type": "Feature", "properties": { "latitude": 36.3895, "longitude": 139.0614, "location": "Gunma", "year": 2015, "speech_count": 1 }, "geometry": { "type": "Point", "coordinates": [ 139.0614, 36.3895 ] } },
{ "type": "Feature", "properties": { "latitude": 36.5656, "longitude": 139.8836, "location": "Tochigi", "year": 2015, "speech_count": 1 }, "geometry": { "type": "Point", "coordinates": [ 139.8836, 36.5656 ] } },
{ "type": "Feature", "properties": { "latitude": 36.75, "longitude": 3.05, "location": "Alger", "year": 2015, "speech_count": 1 }, "geometry": { "type": "Point", "coordinates": [ 3.05, 36.75 ] } },
{ "type": "Feature", "properties": { "latitude": 37.1882, "longitude": -3.6037, "location": "Granada", "year": 2015, "speech_count": 1 }, "geometry": { "type": "Point", "coordinates": [ -3.6037, 37.1882 ] } },
{ "type": "Feature", "properties": { "latitude": 37.4275, "longitude": -122.1697, "location": "Stanford", "year": 2015, "speech_count": 1 }, "geometry": { "type": "Point", "coordinates": [ -122.1697, 37.4275 ] } },
{ "type": "Feature", "properties": { "latitude": 37.5337, "longitude": -77.4669, "location": "Richmond", "year": 2015, "speech_count": 1 }, "geometry": { "type": "Point", "coordinates": [ -77.4669, 37.5337 ] } },
{ "type": "Feature", "properties": { "latitude": 37.5665, "longitude": 126.978, "location": "Seoul", "year": 2015, "speech_count": 2 }, "geometry": { "type": "Point", "coordinates": [ 126.978, 37.5665 ] } },
{ "type": "Feature", "properties": { "latitude": 37.566535, "longitude": 126.9779692, "location": "Seoul", "year": 2015, "speech_count": 1 }, "geometry": { "type": "Point", "coordinates": [ 126.9779692, 37.566535 ] } },
{ "type": "Feature", "properties": { "latitude": 37.7749, "longitude": -122.4194, "location": "San Francisco", "year": 2015, "speech_count": 3 }, "geometry": { "type": "Point", "coordinates": [ -122.4194, 37.7749 ] } },
{ "type": "Feature", "properties": { "latitude": 37.8716, "longitude": -122.2727, "location": "Berkeley", "year": 2015, "speech_count": 1 }, "geometry": { "type": "Point", "coordinates": [ -122.2727, 37.8716 ] } },
{ "type": "Feature", "properties": { "latitude": 37.9838, "longitude": 23.7275, "location": "Athens", "year": 2015, "speech_count": 1 }, "geometry": { "type": "Point", "coordinates": [ 23.7275, 37.9838 ] } },
{ "type": "Feature", "properties": { "latitude": 38.2683, "longitude": 140.8695, "location": "Miyagi", "year": 2015, "speech_count": 1 }, "geometry": { "type": "Point", "coordinates": [ 140.8695, 38.2683 ] } },
{ "type": "Feature", "properties": { "latitude": 38.627, "longitude": -90.1994, "location": "St. Louis", "year": 2015, "speech_count": 2 }, "geometry": { "type": "Point", "coordinates": [ -90.1994, 38.627 ] } },
{ "type": "Feature", "properties": { "latitude": 38.7223, "longitude": -9.1393, "location": "Lisbon", "year": 2015, "speech_count": 3 }, "geometry": { "type": "Point", "coordinates": [ -9.1393, 38.7223 ] } },
{ "type": "Feature", "properties": { "latitude": 38.7993, "longitude": -9.3938, "location": "Sintra", "year": 2015, "speech_count": 1 }, "geometry": { "type": "Point", "coordinates": [ -9.3938, 38.7993 ] } },
{ "type": "Feature", "properties": { "latitude": 38.8053, "longitude": -9.3872, "location": "Sintra, Portugal", "year": 2015, "speech_count": 2 }, "geometry": { "type": "Point", "coordinates": [ -9.3872, 38.8053 ] } },
{ "type": "Feature", "properties": { "latitude": 38.8803, "longitude": -77.1068, "location": "Arlington", "year": 2015, "speech_count": 1 }, "geometry": { "type": "Point", "coordinates": [ -77.1068, 38.8803 ] } },
{ "type": "Feature", "properties": { "latitude": 38.8819, "longitude": -77.1022, "location": "Arlington", "year": 2015, "speech_count": 1 }, "geometry": { "type": "Point", "coordinates": [ -77.1022, 38.8819 ] } },
{ "type": "Feature", "properties": { "latitude": 38.8951, "longitude": -77.0369, "location": "Washington", "year": 2015, "speech_count": 1 }, "geometry": { "type": "Point", "coordinates": [ -77.0369, 38.8951 ] } },
{ "type": "Feature", "properties": { "latitude": 38.8951, "longitude": -77.0364, "location": "Washington", "year": 2015, "speech_count": 32 }, "geometry": { "type": "Point", "coordinates": [ -77.0364, 38.8951 ] } },
{ "type": "Feature", "properties": { "latitude": 39.0997, "longitude": -94.5786, "location": "Kansas City", "year": 2015, "speech_count": 1 }, "geometry": { "type": "Point", "coordinates": [ -94.5786, 39.0997 ] } },
{ "type": "Feature", "properties": { "latitude": 39.9042, "longitude": 116.4074, "location": "Beijing", "year": 2015, "speech_count": 1 }, "geometry": { "type": "Point", "coordinates": [ 116.4074, 39.9042 ] } },
{ "type": "Feature", "properties": { "latitude": 39.9208, "longitude": 32.8541, "location": "Ankara", "year": 2015, "speech_count": 2 }, "geometry": { "type": "Point", "coordinates": [ 32.8541, 39.9208 ] } },
{ "type": "Feature", "properties": { "latitude": 39.9526, "longitude": -75.1652, "location": "Philadelphia", "year": 2015, "speech_count": 2 }, "geometry": { "type": "Point", "coordinates": [ -75.1652, 39.9526 ] } },
{ "type": "Feature", "properties": { "latitude": 40.3951, "longitude": 49.8822, "location": "Baku", "year": 2015, "speech_count": 1 }, "geometry": { "type": "Point", "coordinates": [ 49.8822, 40.3951 ] } },
{ "type": "Feature", "properties": { "latitude": 40.4167, "longitude": -3.7033, "location": "Madrid", "year": 2015, "speech_count": 2 }, "geometry": { "type": "Point", "coordinates": [ -3.7033, 40.4167 ] } },
{ "type": "Feature", "properties": { "latitude": 40.4167754, "longitude": -3.7037902, "location": "Madrid", "year": 2015, "speech_count": 1 }, "geometry": { "type": "Point", "coordinates": [ -3.7037902, 40.4167754 ] } },
{ "type": "Feature", "properties": { "latitude": 40.4168, "longitude": -3.7038, "location": "Madrid", "year": 2015, "speech_count": 8 }, "geometry": { "type": "Point", "coordinates": [ -3.7038, 40.4168 ] } },
{ "type": "Feature", "properties": { "latitude": 40.7127, "longitude": -74.0059, "location": "New York", "year": 2015, "speech_count": 5 }, "geometry": { "type": "Point", "coordinates": [ -74.0059, 40.7127 ] } },
{ "type": "Feature", "properties": { "latitude": 40.7127753, "longitude": -74.0059728, "location": "New York", "year": 2015, "speech_count": 2 }, "geometry": { "type": "Point", "coordinates": [ -74.0059728, 40.7127753 ] } },
{ "type": "Feature", "properties": { "latitude": 40.7128, "longitude": -74.006, "location": "New York", "year": 2015, "speech_count": 7 }, "geometry": { "type": "Point", "coordinates": [ -74.006, 40.7128 ] } },
{ "type": "Feature", "properties": { "latitude": 40.7128, "longitude": -74.0059, "location": "New York", "year": 2015, "speech_count": 30 }, "geometry": { "type": "Point", "coordinates": [ -74.0059, 40.7128 ] } },
{ "type": "Feature", "properties": { "latitude": 40.7357, "longitude": -74.1724, "location": "Newark", "year": 2015, "speech_count": 1 }, "geometry": { "type": "Point", "coordinates": [ -74.1724, 40.7357 ] } },
{ "type": "Feature", "properties": { "latitude": 40.8244, "longitude": 140.7405, "location": "Aomori", "year": 2015, "speech_count": 1 }, "geometry": { "type": "Point", "coordinates": [ 140.7405, 40.8244 ] } },
{ "type": "Feature", "properties": { "latitude": 40.8518, "longitude": 14.2681, "location": "Naples", "year": 2015, "speech_count": 1 }, "geometry": { "type": "Point", "coordinates": [ 14.2681, 40.8518 ] } },
{ "type": "Feature", "properties": { "latitude": 41.0082, "longitude": 28.9784, "location": "Istanbul", "year": 2015, "speech_count": 3 }, "geometry": { "type": "Point", "coordinates": [ 28.9784, 41.0082 ] } },
{ "type": "Feature", "properties": { "latitude": 41.2283, "longitude": 1.8109, "location": "Sitges", "year": 2015, "speech_count": 1 }, "geometry": { "type": "Point", "coordinates": [ 1.8109, 41.2283 ] } },
{ "type": "Feature", "properties": { "latitude": 41.3083, "longitude": -72.9282, "location": "New Haven", "year": 2015, "speech_count": 1 }, "geometry": { "type": "Point", "coordinates": [ -72.9282, 41.3083 ] } },
{ "type": "Feature", "properties": { "latitude": 41.3275, "longitude": 19.8187, "location": "Tirana", "year": 2015, "speech_count": 7 }, "geometry": { "type": "Point", "coordinates": [ 19.8187, 41.3275 ] } },
{ "type": "Feature", "properties": { "latitude": 41.3275, "longitude": 19.8189, "location": "Tirana", "year": 2015, "speech_count": 1 }, "geometry": { "type": "Point", "coordinates": [ 19.8189, 41.3275 ] } },
{ "type": "Feature", "properties": { "latitude": 41.3851, "longitude": 2.1734, "location": "Barcelona", "year": 2015, "speech_count": 4 }, "geometry": { "type": "Point", "coordinates": [ 2.1734, 41.3851 ] } },
{ "type": "Feature", "properties": { "latitude": 41.4995, "longitude": -81.6954, "location": "Cleveland", "year": 2015, "speech_count": 1 }, "geometry": { "type": "Point", "coordinates": [ -81.6954, 41.4995 ] } },
{ "type": "Feature", "properties": { "latitude": 41.6611, "longitude": -91.5306, "location": "Iowa City", "year": 2015, "speech_count": 1 }, "geometry": { "type": "Point", "coordinates": [ -91.5306, 41.6611 ] } },
{ "type": "Feature", "properties": { "latitude": 41.8236, "longitude": -71.4195, "location": "Providence", "year": 2015, "speech_count": 1 }, "geometry": { "type": "Point", "coordinates": [ -71.4195, 41.8236 ] } },
{ "type": "Feature", "properties": { "latitude": 41.8781, "longitude": -87.6298, "location": "Chicago", "year": 2015, "speech_count": 3 }, "geometry": { "type": "Point", "coordinates": [ -87.6298, 41.8781 ] } },
{ "type": "Feature", "properties": { "latitude": 41.8902, "longitude": 12.4923, "location": "Rome", "year": 2015, "speech_count": 8 }, "geometry": { "type": "Point", "coordinates": [ 12.4923, 41.8902 ] } },
{ "type": "Feature", "properties": { "latitude": 41.8919, "longitude": 12.4964, "location": "Rome", "year": 2015, "speech_count": 1 }, "geometry": { "type": "Point", "coordinates": [ 12.4964, 41.8919 ] } },
{ "type": "Feature", "properties": { "latitude": 41.9975, "longitude": 21.4278, "location": "Skopje", "year": 2015, "speech_count": 1 }, "geometry": { "type": "Point", "coordinates": [ 21.4278, 41.9975 ] } },
{ "type": "Feature", "properties": { "latitude": 42.0024, "longitude": 21.436, "location": "Skopje", "year": 2015, "speech_count": 1 }, "geometry": { "type": "Point", "coordinates": [ 21.436, 42.0024 ] } },
{ "type": "Feature", "properties": { "latitude": 42.3154, "longitude": -83.0399, "location": "Windsor", "year": 2015, "speech_count": 1 }, "geometry": { "type": "Point", "coordinates": [ -83.0399, 42.3154 ] } },
{ "type": "Feature", "properties": { "latitude": 42.3154, "longitude": -83.0398, "location": "Windsor", "year": 2015, "speech_count": 1 }, "geometry": { "type": "Point", "coordinates": [ -83.0398, 42.3154 ] } },
{ "type": "Feature", "properties": { "latitude": 42.3189, "longitude": -83.0382, "location": "Windsor, Ontario", "year": 2015, "speech_count": 1 }, "geometry": { "type": "Point", "coordinates": [ -83.0382, 42.3189 ] } },
{ "type": "Feature", "properties": { "latitude": 42.3601, "longitude": -71.0589, "location": "Boston", "year": 2015, "speech_count": 2 }, "geometry": { "type": "Point", "coordinates": [ -71.0589, 42.3601 ] } },
{ "type": "Feature", "properties": { "latitude": 42.3714, "longitude": -72.5164, "location": "Amherst, Massachusetts", "year": 2015, "speech_count": 1 }, "geometry": { "type": "Point", "coordinates": [ -72.5164, 42.3714 ] } },
{ "type": "Feature", "properties": { "latitude": 42.4304, "longitude": 19.2594, "location": "Podgorica", "year": 2015, "speech_count": 1 }, "geometry": { "type": "Point", "coordinates": [ 19.2594, 42.4304 ] } },
{ "type": "Feature", "properties": { "latitude": 42.6496, "longitude": 18.1063, "location": "Dubrovnik", "year": 2015, "speech_count": 1 }, "geometry": { "type": "Point", "coordinates": [ 18.1063, 42.6496 ] } },
{ "type": "Feature", "properties": { "latitude": 42.6628, "longitude": 21.1651, "location": "Pristina", "year": 2015, "speech_count": 1 }, "geometry": { "type": "Point", "coordinates": [ 21.1651, 42.6628 ] } },
{ "type": "Feature", "properties": { "latitude": 42.9834, "longitude": -81.25, "location": "London, Ontario", "year": 2015, "speech_count": 1 }, "geometry": { "type": "Point", "coordinates": [ -81.25, 42.9834 ] } },
{ "type": "Feature", "properties": { "latitude": 43.0643, "longitude": 141.3469, "location": "Sapporo", "year": 2015, "speech_count": 1 }, "geometry": { "type": "Point", "coordinates": [ 141.3469, 43.0643 ] } },
{ "type": "Feature", "properties": { "latitude": 43.0730517, "longitude": -89.4012302, "location": "Madison", "year": 2015, "speech_count": 1 }, "geometry": { "type": "Point", "coordinates": [ -89.4012302, 43.0730517 ] } },
{ "type": "Feature", "properties": { "latitude": 43.0731, "longitude": -89.4012, "location": "Madison", "year": 2015, "speech_count": 1 }, "geometry": { "type": "Point", "coordinates": [ -89.4012, 43.0731 ] } },
{ "type": "Feature", "properties": { "latitude": 43.1128, "longitude": 12.3878, "location": "Perugia", "year": 2015, "speech_count": 1 }, "geometry": { "type": "Point", "coordinates": [ 12.3878, 43.1128 ] } },
{ "type": "Feature", "properties": { "latitude": 43.1549, "longitude": -77.6156, "location": "Rochester", "year": 2015, "speech_count": 1 }, "geometry": { "type": "Point", "coordinates": [ -77.6156, 43.1549 ] } },
{ "type": "Feature", "properties": { "latitude": 43.2557, "longitude": -79.8711, "location": "Hamilton", "year": 2015, "speech_count": 1 }, "geometry": { "type": "Point", "coordinates": [ -79.8711, 43.2557 ] } },
{ "type": "Feature", "properties": { "latitude": 43.4625, "longitude": -3.8076, "location": "Santander", "year": 2015, "speech_count": 1 }, "geometry": { "type": "Point", "coordinates": [ -3.8076, 43.4625 ] } },
{ "type": "Feature", "properties": { "latitude": 43.5824, "longitude": -110.8542, "location": "Jackson Hole", "year": 2015, "speech_count": 2 }, "geometry": { "type": "Point", "coordinates": [ -110.8542, 43.5824 ] } },
{ "type": "Feature", "properties": { "latitude": 43.5826, "longitude": -110.8272, "location": "Jackson Hole", "year": 2015, "speech_count": 1 }, "geometry": { "type": "Point", "coordinates": [ -110.8272, 43.5826 ] } },
{ "type": "Feature", "properties": { "latitude": 43.6525, "longitude": -72.9442, "location": "Rutland", "year": 2015, "speech_count": 1 }, "geometry": { "type": "Point", "coordinates": [ -72.9442, 43.6525 ] } },
{ "type": "Feature", "properties": { "latitude": 43.6532, "longitude": -79.3832, "location": "Toronto", "year": 2015, "speech_count": 3 }, "geometry": { "type": "Point", "coordinates": [ -79.3832, 43.6532 ] } },
{ "type": "Feature", "properties": { "latitude": 43.7696, "longitude": 11.2558, "location": "Florence", "year": 2015, "speech_count": 1 }, "geometry": { "type": "Point", "coordinates": [ 11.2558, 43.7696 ] } },
{ "type": "Feature", "properties": { "latitude": 44.4268, "longitude": 26.1025, "location": "Bucharest", "year": 2015, "speech_count": 1 }, "geometry": { "type": "Point", "coordinates": [ 26.1025, 44.4268 ] } },
{ "type": "Feature", "properties": { "latitude": 44.4322, "longitude": 26.1063, "location": "Bucharest", "year": 2015, "speech_count": 2 }, "geometry": { "type": "Point", "coordinates": [ 26.1063, 44.4322 ] } },
{ "type": "Feature", "properties": { "latitude": 44.4949, "longitude": 11.3426, "location": "Bologna", "year": 2015, "speech_count": 1 }, "geometry": { "type": "Point", "coordinates": [ 11.3426, 44.4949 ] } },
{ "type": "Feature", "properties": { "latitude": 44.6489, "longitude": -63.5752, "location": "Halifax", "year": 2015, "speech_count": 1 }, "geometry": { "type": "Point", "coordinates": [ -63.5752, 44.6489 ] } },
{ "type": "Feature", "properties": { "latitude": 44.9778, "longitude": -93.265, "location": "Minneapolis", "year": 2015, "speech_count": 1 }, "geometry": { "type": "Point", "coordinates": [ -93.265, 44.9778 ] } },
{ "type": "Feature", "properties": { "latitude": 45.1885, "longitude": 9.1605, "location": "Pavia", "year": 2015, "speech_count": 1 }, "geometry": { "type": "Point", "coordinates": [ 9.1605, 45.1885 ] } },
{ "type": "Feature", "properties": { "latitude": 45.4215, "longitude": -75.6972, "location": "Ottawa", "year": 2015, "speech_count": 4 }, "geometry": { "type": "Point", "coordinates": [ -75.6972, 45.4215 ] } },
{ "type": "Feature", "properties": { "latitude": 45.4215, "longitude": -75.6919, "location": "Ottawa", "year": 2015, "speech_count": 4 }, "geometry": { "type": "Point", "coordinates": [ -75.6919, 45.4215 ] } },
{ "type": "Feature", "properties": { "latitude": 45.4408, "longitude": 12.3155, "location": "Venice", "year": 2015, "speech_count": 1 }, "geometry": { "type": "Point", "coordinates": [ 12.3155, 45.4408 ] } },
{ "type": "Feature", "properties": { "latitude": 45.4642, "longitude": 9.1895, "location": "Milan", "year": 2015, "speech_count": 4 }, "geometry": { "type": "Point", "coordinates": [ 9.1895, 45.4642 ] } },
{ "type": "Feature", "properties": { "latitude": 45.4642, "longitude": 9.19, "location": "Milan", "year": 2015, "speech_count": 1 }, "geometry": { "type": "Point", "coordinates": [ 9.19, 45.4642 ] } },
{ "type": "Feature", "properties": { "latitude": 45.4654, "longitude": 9.1859, "location": "Milan", "year": 2015, "speech_count": 1 }, "geometry": { "type": "Point", "coordinates": [ 9.1859, 45.4654 ] } },
{ "type": "Feature", "properties": { "latitude": 45.4667, "longitude": 9.1833, "location": "Milan", "year": 2015, "speech_count": 2 }, "geometry": { "type": "Point", "coordinates": [ 9.1833, 45.4667 ] } },
{ "type": "Feature", "properties": { "latitude": 45.5017, "longitude": -73.5673, "location": "Montreal", "year": 2015, "speech_count": 1 }, "geometry": { "type": "Point", "coordinates": [ -73.5673, 45.5017 ] } },
{ "type": "Feature", "properties": { "latitude": 45.5017, "longitude": -73.5673, "location": "Montr√©al", "year": 2015, "speech_count": 1 }, "geometry": { "type": "Point", "coordinates": [ -73.5673, 45.5017 ] } },
{ "type": "Feature", "properties": { "latitude": 45.5088, "longitude": -73.554, "location": "Montreal", "year": 2015, "speech_count": 1 }, "geometry": { "type": "Point", "coordinates": [ -73.554, 45.5088 ] } },
{ "type": "Feature", "properties": { "latitude": 45.815, "longitude": 15.9819, "location": "Zagreb", "year": 2015, "speech_count": 1 }, "geometry": { "type": "Point", "coordinates": [ 15.9819, 45.815 ] } },
{ "type": "Feature", "properties": { "latitude": 46.1962, "longitude": -74.5866, "location": "Mont-Tremblant", "year": 2015, "speech_count": 1 }, "geometry": { "type": "Point", "coordinates": [ -74.5866, 46.1962 ] } },
{ "type": "Feature", "properties": { "latitude": 46.2018, "longitude": 6.1404, "location": "Geneva", "year": 2015, "speech_count": 1 }, "geometry": { "type": "Point", "coordinates": [ 6.1404, 46.2018 ] } },
{ "type": "Feature", "properties": { "latitude": 46.2044, "longitude": 6.1432, "location": "Geneva", "year": 2015, "speech_count": 3 }, "geometry": { "type": "Point", "coordinates": [ 6.1432, 46.2044 ] } },
{ "type": "Feature", "properties": { "latitude": 46.2381, "longitude": -63.1309, "location": "Charlottetown", "year": 2015, "speech_count": 1 }, "geometry": { "type": "Point", "coordinates": [ -63.1309, 46.2381 ] } },
{ "type": "Feature", "properties": { "latitude": 46.4333, "longitude": 6.9167, "location": "Montreux", "year": 2015, "speech_count": 1 }, "geometry": { "type": "Point", "coordinates": [ 6.9167, 46.4333 ] } },
{ "type": "Feature", "properties": { "latitude": 46.5196, "longitude": 6.6323, "location": "Lausanne", "year": 2015, "speech_count": 1 }, "geometry": { "type": "Point", "coordinates": [ 6.6323, 46.5196 ] } },
{ "type": "Feature", "properties": { "latitude": 46.9479, "longitude": 7.4446, "location": "Berne", "year": 2015, "speech_count": 3 }, "geometry": { "type": "Point", "coordinates": [ 7.4446, 46.9479 ] } },
{ "type": "Feature", "properties": { "latitude": 46.948, "longitude": 7.4458, "location": "Berne", "year": 2015, "speech_count": 2 }, "geometry": { "type": "Point", "coordinates": [ 7.4458, 46.948 ] } },
{ "type": "Feature", "properties": { "latitude": 46.948, "longitude": 7.4474, "location": "Berne", "year": 2015, "speech_count": 2 }, "geometry": { "type": "Point", "coordinates": [ 7.4474, 46.948 ] } },
{ "type": "Feature", "properties": { "latitude": 47.3667, "longitude": 8.55, "location": "Zurich", "year": 2015, "speech_count": 1 }, "geometry": { "type": "Point", "coordinates": [ 8.55, 47.3667 ] } },
{ "type": "Feature", "properties": { "latitude": 47.3769, "longitude": 8.5389, "location": "Zurich", "year": 2015, "speech_count": 1 }, "geometry": { "type": "Point", "coordinates": [ 8.5389, 47.3769 ] } },
{ "type": "Feature", "properties": { "latitude": 47.3769, "longitude": 8.5417, "location": "Zurich", "year": 2015, "speech_count": 6 }, "geometry": { "type": "Point", "coordinates": [ 8.5417, 47.3769 ] } },
{ "type": "Feature", "properties": { "latitude": 47.4979, "longitude": 19.0402, "location": "Budapest", "year": 2015, "speech_count": 1 }, "geometry": { "type": "Point", "coordinates": [ 19.0402, 47.4979 ] } },
{ "type": "Feature", "properties": { "latitude": 47.4984, "longitude": 19.0408, "location": "Budapest", "year": 2015, "speech_count": 1 }, "geometry": { "type": "Point", "coordinates": [ 19.0408, 47.4984 ] } },
{ "type": "Feature", "properties": { "latitude": 47.5596, "longitude": 7.5889, "location": "Basel", "year": 2015, "speech_count": 1 }, "geometry": { "type": "Point", "coordinates": [ 7.5889, 47.5596 ] } },
{ "type": "Feature", "properties": { "latitude": 47.5596, "longitude": 7.5894, "location": "Basel", "year": 2015, "speech_count": 1 }, "geometry": { "type": "Point", "coordinates": [ 7.5894, 47.5596 ] } },
{ "type": "Feature", "properties": { "latitude": 47.5596, "longitude": 7.5912, "location": "Basel", "year": 2015, "speech_count": 1 }, "geometry": { "type": "Point", "coordinates": [ 7.5912, 47.5596 ] } },
{ "type": "Feature", "properties": { "latitude": 47.6518, "longitude": 8.9083, "location": "Ermatingen", "year": 2015, "speech_count": 1 }, "geometry": { "type": "Point", "coordinates": [ 8.9083, 47.6518 ] } },
{ "type": "Feature", "properties": { "latitude": 47.8095, "longitude": 13.055, "location": "Salzburg", "year": 2015, "speech_count": 1 }, "geometry": { "type": "Point", "coordinates": [ 13.055, 47.8095 ] } },
{ "type": "Feature", "properties": { "latitude": 48.0982, "longitude": 9.7836, "location": "Biberach an der Ri√ü", "year": 2015, "speech_count": 1 }, "geometry": { "type": "Point", "coordinates": [ 9.7836, 48.0982 ] } },
{ "type": "Feature", "properties": { "latitude": 48.1351, "longitude": 11.582, "location": "Munich", "year": 2015, "speech_count": 2 }, "geometry": { "type": "Point", "coordinates": [ 11.582, 48.1351 ] } },
{ "type": "Feature", "properties": { "latitude": 48.1371, "longitude": 11.5754, "location": "Munich", "year": 2015, "speech_count": 1 }, "geometry": { "type": "Point", "coordinates": [ 11.5754, 48.1371 ] } },
{ "type": "Feature", "properties": { "latitude": 48.2082, "longitude": 16.3738, "location": "Vienna", "year": 2015, "speech_count": 4 }, "geometry": { "type": "Point", "coordinates": [ 16.3738, 48.2082 ] } },
{ "type": "Feature", "properties": { "latitude": 48.7667, "longitude": 11.4206, "location": "Ingolstadt", "year": 2015, "speech_count": 1 }, "geometry": { "type": "Point", "coordinates": [ 11.4206, 48.7667 ] } },
{ "type": "Feature", "properties": { "latitude": 48.8566, "longitude": 2.3522, "location": "Paris", "year": 2015, "speech_count": 17 }, "geometry": { "type": "Point", "coordinates": [ 2.3522, 48.8566 ] } },
{ "type": "Feature", "properties": { "latitude": 48.856614, "longitude": 2.3522219, "location": "Paris", "year": 2015, "speech_count": 1 }, "geometry": { "type": "Point", "coordinates": [ 2.3522219, 48.856614 ] } },
{ "type": "Feature", "properties": { "latitude": 48.8582, "longitude": 2.2945, "location": "Paris", "year": 2015, "speech_count": 4 }, "geometry": { "type": "Point", "coordinates": [ 2.2945, 48.8582 ] } },
{ "type": "Feature", "properties": { "latitude": 49.2827, "longitude": -123.1207, "location": "Vancouver", "year": 2015, "speech_count": 1 }, "geometry": { "type": "Point", "coordinates": [ -123.1207, 49.2827 ] } },
{ "type": "Feature", "properties": { "latitude": 49.4875, "longitude": 8.4659, "location": "Mannheim", "year": 2015, "speech_count": 1 }, "geometry": { "type": "Point", "coordinates": [ 8.4659, 49.4875 ] } },
{ "type": "Feature", "properties": { "latitude": 49.4878, "longitude": 8.4667, "location": "Mannheim", "year": 2015, "speech_count": 1 }, "geometry": { "type": "Point", "coordinates": [ 8.4667, 49.4878 ] } },
{ "type": "Feature", "properties": { "latitude": 49.6116, "longitude": 6.1319, "location": "Luxembourg", "year": 2015, "speech_count": 4 }, "geometry": { "type": "Point", "coordinates": [ 6.1319, 49.6116 ] } },
{ "type": "Feature", "properties": { "latitude": 50.0086, "longitude": 7.9697, "location": "Oestrich-Winkel", "year": 2015, "speech_count": 1 }, "geometry": { "type": "Point", "coordinates": [ 7.9697, 50.0086 ] } },
{ "type": "Feature", "properties": { "latitude": 50.0755, "longitude": 14.4378, "location": "Prague", "year": 2015, "speech_count": 1 }, "geometry": { "type": "Point", "coordinates": [ 14.4378, 50.0755 ] } },
{ "type": "Feature", "properties": { "latitude": 50.088, "longitude": 14.4208, "location": "Prague", "year": 2015, "speech_count": 1 }, "geometry": { "type": "Point", "coordinates": [ 14.4208, 50.088 ] } },
{ "type": "Feature", "properties": { "latitude": 50.08804, "longitude": 14.42076, "location": "Prague", "year": 2015, "speech_count": 1 }, "geometry": { "type": "Point", "coordinates": [ 14.42076, 50.08804 ] } },
{ "type": "Feature", "properties": { "latitude": 50.1109, "longitude": 8.6821, "location": "Frankfurt", "year": 2015, "speech_count": 53 }, "geometry": { "type": "Point", "coordinates": [ 8.6821, 50.1109 ] } },
{ "type": "Feature", "properties": { "latitude": 50.8465, "longitude": 4.3517, "location": "Brussels", "year": 2015, "speech_count": 13 }, "geometry": { "type": "Point", "coordinates": [ 4.3517, 50.8465 ] } },
{ "type": "Feature", "properties": { "latitude": 50.8465, "longitude": 4.3517, "location": "Brussels;Frankfurt am Main;London", "year": 2015, "speech_count": 1 }, "geometry": { "type": "Point", "coordinates": [ 4.3517, 50.8465 ] } },
{ "type": "Feature", "properties": { "latitude": 51.0447, "longitude": -114.0719, "location": "Calgary", "year": 2015, "speech_count": 1 }, "geometry": { "type": "Point", "coordinates": [ -114.0719, 51.0447 ] } },
{ "type": "Feature", "properties": { "latitude": 51.5074, "longitude": -0.1278, "location": "London", "year": 2015, "speech_count": 53 }, "geometry": { "type": "Point", "coordinates": [ -0.1278, 51.5074 ] } },
{ "type": "Feature", "properties": { "latitude": 51.7522, "longitude": -1.2558, "location": "Oxford", "year": 2015, "speech_count": 1 }, "geometry": { "type": "Point", "coordinates": [ -1.2558, 51.7522 ] } },
{ "type": "Feature", "properties": { "latitude": 51.7522, "longitude": -1.2558, "location": "Oxford, United Kingdom", "year": 2015, "speech_count": 1 }, "geometry": { "type": "Point", "coordinates": [ -1.2558, 51.7522 ] } },
{ "type": "Feature", "properties": { "latitude": 51.8806, "longitude": -0.4175, "location": "Luton", "year": 2015, "speech_count": 1 }, "geometry": { "type": "Point", "coordinates": [ -0.4175, 51.8806 ] } },
{ "type": "Feature", "properties": { "latitude": 51.9167, "longitude": 8.3833, "location": "G√ºtersloh", "year": 2015, "speech_count": 1 }, "geometry": { "type": "Point", "coordinates": [ 8.3833, 51.9167 ] } },
{ "type": "Feature", "properties": { "latitude": 51.9622, "longitude": 7.6261, "location": "M√ºnster", "year": 2015, "speech_count": 1 }, "geometry": { "type": "Point", "coordinates": [ 7.6261, 51.9622 ] } },
{ "type": "Feature", "properties": { "latitude": 51.9624, "longitude": 7.6256, "location": "M√ºnster", "year": 2015, "speech_count": 1 }, "geometry": { "type": "Point", "coordinates": [ 7.6256, 51.9624 ] } },
{ "type": "Feature", "properties": { "latitude": 52.1568, "longitude": 4.4752, "location": "Leiden", "year": 2015, "speech_count": 1 }, "geometry": { "type": "Point", "coordinates": [ 4.4752, 52.1568 ] } },
{ "type": "Feature", "properties": { "latitude": 52.2053, "longitude": 0.1218, "location": "Cambridge", "year": 2015, "speech_count": 3 }, "geometry": { "type": "Point", "coordinates": [ 0.1218, 52.2053 ] } },
{ "type": "Feature", "properties": { "latitude": 52.2297, "longitude": 21.0122, "location": "Warsaw", "year": 2015, "speech_count": 1 }, "geometry": { "type": "Point", "coordinates": [ 21.0122, 52.2297 ] } },
{ "type": "Feature", "properties": { "latitude": 52.237, "longitude": 21.0175, "location": "Warsaw", "year": 2015, "speech_count": 1 }, "geometry": { "type": "Point", "coordinates": [ 21.0175, 52.237 ] } },
{ "type": "Feature", "properties": { "latitude": 52.2667, "longitude": 5.1667, "location": "Bussum", "year": 2015, "speech_count": 1 }, "geometry": { "type": "Point", "coordinates": [ 5.1667, 52.2667 ] } },
{ "type": "Feature", "properties": { "latitude": 52.2754, "longitude": 8.0439, "location": "Osnabr√ºck", "year": 2015, "speech_count": 1 }, "geometry": { "type": "Point", "coordinates": [ 8.0439, 52.2754 ] } },
{ "type": "Feature", "properties": { "latitude": 52.2864, "longitude": -1.5878, "location": "Warwick", "year": 2015, "speech_count": 1 }, "geometry": { "type": "Point", "coordinates": [ -1.5878, 52.2864 ] } },
{ "type": "Feature", "properties": { "latitude": 52.3702, "longitude": 4.8952, "location": "Amsterdam", "year": 2015, "speech_count": 2 }, "geometry": { "type": "Point", "coordinates": [ 4.8952, 52.3702 ] } },
{ "type": "Feature", "properties": { "latitude": 52.374, "longitude": 4.8897, "location": "Amsterdam", "year": 2015, "speech_count": 1 }, "geometry": { "type": "Point", "coordinates": [ 4.8897, 52.374 ] } },
{ "type": "Feature", "properties": { "latitude": 52.4068, "longitude": -1.5194, "location": "Coventry", "year": 2015, "speech_count": 1 }, "geometry": { "type": "Point", "coordinates": [ -1.5194, 52.4068 ] } },
{ "type": "Feature", "properties": { "latitude": 52.5167, "longitude": 13.3833, "location": "Berlin", "year": 2015, "speech_count": 1 }, "geometry": { "type": "Point", "coordinates": [ 13.3833, 52.5167 ] } },
{ "type": "Feature", "properties": { "latitude": 52.5171, "longitude": 13.3889, "location": "Berlin", "year": 2015, "speech_count": 1 }, "geometry": { "type": "Point", "coordinates": [ 13.3889, 52.5171 ] } },
{ "type": "Feature", "properties": { "latitude": 52.52, "longitude": 13.405, "location": "Berlin", "year": 2015, "speech_count": 5 }, "geometry": { "type": "Point", "coordinates": [ 13.405, 52.52 ] } },
{ "type": "Feature", "properties": { "latitude": 52.6319, "longitude": 1.2989, "location": "Norwich", "year": 2015, "speech_count": 1 }, "geometry": { "type": "Point", "coordinates": [ 1.2989, 52.6319 ] } },
{ "type": "Feature", "properties": { "latitude": 53.2333, "longitude": -0.5333, "location": "Lincoln", "year": 2015, "speech_count": 1 }, "geometry": { "type": "Point", "coordinates": [ -0.5333, 53.2333 ] } },
{ "type": "Feature", "properties": { "latitude": 53.3498, "longitude": -6.2603, "location": "Dublin", "year": 2015, "speech_count": 14 }, "geometry": { "type": "Point", "coordinates": [ -6.2603, 53.3498 ] } },
{ "type": "Feature", "properties": { "latitude": 53.3811, "longitude": -1.4701, "location": "Sheffield", "year": 2015, "speech_count": 1 }, "geometry": { "type": "Point", "coordinates": [ -1.4701, 53.3811 ] } },
{ "type": "Feature", "properties": { "latitude": 53.4808, "longitude": -2.2426, "location": "Manchester", "year": 2015, "speech_count": 1 }, "geometry": { "type": "Point", "coordinates": [ -2.2426, 53.4808 ] } },
{ "type": "Feature", "properties": { "latitude": 53.9921, "longitude": -1.5514, "location": "Harrogate", "year": 2015, "speech_count": 1 }, "geometry": { "type": "Point", "coordinates": [ -1.5514, 53.9921 ] } },
{ "type": "Feature", "properties": { "latitude": 54.5973, "longitude": -5.9301, "location": "Belfast", "year": 2015, "speech_count": 1 }, "geometry": { "type": "Point", "coordinates": [ -5.9301, 54.5973 ] } },
{ "type": "Feature", "properties": { "latitude": 54.6872, "longitude": 25.2796, "location": "Vilnius", "year": 2015, "speech_count": 1 }, "geometry": { "type": "Point", "coordinates": [ 25.2796, 54.6872 ] } },
{ "type": "Feature", "properties": { "latitude": 54.6896, "longitude": 25.2799, "location": "Vilnius", "year": 2015, "speech_count": 2 }, "geometry": { "type": "Point", "coordinates": [ 25.2799, 54.6896 ] } },
{ "type": "Feature", "properties": { "latitude": 55.6761, "longitude": 12.5683, "location": "Copenhagen", "year": 2015, "speech_count": 2 }, "geometry": { "type": "Point", "coordinates": [ 12.5683, 55.6761 ] } },
{ "type": "Feature", "properties": { "latitude": 55.6763, "longitude": 12.5683, "location": "Copenhagen", "year": 2015, "speech_count": 1 }, "geometry": { "type": "Point", "coordinates": [ 12.5683, 55.6763 ] } },
{ "type": "Feature", "properties": { "latitude": 55.7558, "longitude": 37.6173, "location": "Moscow", "year": 2015, "speech_count": 3 }, "geometry": { "type": "Point", "coordinates": [ 37.6173, 55.7558 ] } },
{ "type": "Feature", "properties": { "latitude": 55.9521, "longitude": -3.1883, "location": "Edinburgh", "year": 2015, "speech_count": 1 }, "geometry": { "type": "Point", "coordinates": [ -3.1883, 55.9521 ] } },
{ "type": "Feature", "properties": { "latitude": 55.9533, "longitude": -3.1883, "location": "Edinburgh", "year": 2015, "speech_count": 2 }, "geometry": { "type": "Point", "coordinates": [ -3.1883, 55.9533 ] } },
{ "type": "Feature", "properties": { "latitude": 56.9496, "longitude": 24.1052, "location": "Riga", "year": 2015, "speech_count": 1 }, "geometry": { "type": "Point", "coordinates": [ 24.1052, 56.9496 ] } },
{ "type": "Feature", "properties": { "latitude": 59.3293, "longitude": 18.0686, "location": "Stockholm", "year": 2015, "speech_count": 8 }, "geometry": { "type": "Point", "coordinates": [ 18.0686, 59.3293 ] } },
{ "type": "Feature", "properties": { "latitude": 59.3345, "longitude": 18.0632, "location": "Stockholm", "year": 2015, "speech_count": 1 }, "geometry": { "type": "Point", "coordinates": [ 18.0632, 59.3345 ] } },
{ "type": "Feature", "properties": { "latitude": 59.4372, "longitude": 24.7536, "location": "Tallinn", "year": 2015, "speech_count": 1 }, "geometry": { "type": "Point", "coordinates": [ 24.7536, 59.4372 ] } },
{ "type": "Feature", "properties": { "latitude": 59.4452, "longitude": 17.8667, "location": "B√•lsta", "year": 2015, "speech_count": 1 }, "geometry": { "type": "Point", "coordinates": [ 17.8667, 59.4452 ] } },
{ "type": "Feature", "properties": { "latitude": 59.9138, "longitude": 10.7522, "location": "Oslo", "year": 2015, "speech_count": 1 }, "geometry": { "type": "Point", "coordinates": [ 10.7522, 59.9138 ] } },
{ "type": "Feature", "properties": { "latitude": 59.9139, "longitude": 10.7522, "location": "Oslo", "year": 2015, "speech_count": 4 }, "geometry": { "type": "Point", "coordinates": [ 10.7522, 59.9139 ] } },
{ "type": "Feature", "properties": { "latitude": 59.9343, "longitude": 30.3351, "location": "St. Petersburg", "year": 2015, "speech_count": 1 }, "geometry": { "type": "Point", "coordinates": [ 30.3351, 59.9343 ] } },
{ "type": "Feature", "properties": { "latitude": 60.1699, "longitude": 24.9384, "location": "Helsinki", "year": 2015, "speech_count": 9 }, "geometry": { "type": "Point", "coordinates": [ 24.9384, 60.1699 ] } },
{ "type": "Feature", "properties": { "latitude": 60.9853, "longitude": 25.6656, "location": "Lahti", "year": 2015, "speech_count": 1 }, "geometry": { "type": "Point", "coordinates": [ 25.6656, 60.9853 ] } },
{ "type": "Feature", "properties": { "latitude": 63.1056, "longitude": 8.0458, "location": "Kristiansund", "year": 2015, "speech_count": 1 }, "geometry": { "type": "Point", "coordinates": [ 8.0458, 63.1056 ] } },
{ "type": "Feature", "properties": { "latitude": 64.1265, "longitude": -21.8174, "location": "Reykjavik", "year": 2015, "speech_count": 1 }, "geometry": { "type": "Point", "coordinates": [ -21.8174, 64.1265 ] } },
{ "type": "Feature", "properties": { "latitude": 64.1466, "longitude": -21.9464, "location": "Reykjavik", "year": 2015, "speech_count": 1 }, "geometry": { "type": "Point", "coordinates": [ -21.9464, 64.1466 ] } }
]
}
