{
"type": "FeatureCollection",
"name": "speeches_2016",
"crs": { "type": "name", "properties": { "name": "urn:ogc:def:crs:OGC:1.3:CRS84" } },
"features": [
{ "type": "Feature", "properties": { "latitude": -45.8787, "longitude": 170.5039, "location": "Dunedin", "year": 2016, "speech_count": 2 }, "geometry": { "type": "Point", "coordinates": [ 170.5039, -45.8787 ] } },
{ "type": "Feature", "properties": { "latitude": -43.5321, "longitude": 172.6362, "location": "Christchurch", "year": 2016, "speech_count": 1 }, "geometry": { "type": "Point", "coordinates": [ 172.6362, -43.5321 ] } },
{ "type": "Feature", "properties": { "latitude": -42.8794, "longitude": 147.3294, "location": "Hobart", "year": 2016, "speech_count": 1 }, "geometry": { "type": "Point", "coordinates": [ 147.3294, -42.8794 ] } },
{ "type": "Feature", "properties": { "latitude": -42.45, "longitude": 171.22, "location": "Greymouth", "year": 2016, "speech_count": 1 }, "geometry": { "type": "Point", "coordinates": [ 171.22, -42.45 ] } },
{ "type": "Feature", "properties": { "latitude": -41.2865, "longitude": 174.7762, "location": "Wellington", "year": 2016, "speech_count": 1 }, "geometry": { "type": "Point", "coordinates": [ 174.7762, -41.2865 ] } },
{ "type": "Feature", "properties": { "latitude": -40.3519, "longitude": 175.6034, "location": "Palmerston North", "year": 2016, "speech_count": 1 }, "geometry": { "type": "Point", "coordinates": [ 175.6034, -40.3519 ] } },
{ "type": "Feature", "properties": { "latitude": -38.1333, "longitude": 176.25, "location": "Rotorua", "year": 2016, "speech_count": 1 }, "geometry": { "type": "Point", "coordinates": [ 176.25, -38.1333 ] } },
{ "type": "Feature", "properties": { "latitude": -37.8142, "longitude": 144.9631, "location": "Melbourne", "year": 2016, "speech_count": 3 }, "geometry": { "type": "Point", "coordinates": [ 144.9631, -37.8142 ] } },
{ "type": "Feature", "properties": { "latitude": -37.814, "longitude": 144.9633, "location": "Melbourne", "year": 2016, "speech_count": 1 }, "geometry": { "type": "Point", "coordinates": [ 144.9633, -37.814 ] } },
{ "type": "Feature", "properties": { "latitude": -36.8485, "longitude": 174.7633, "location": "Auckland", "year": 2016, "speech_count": 1 }, "geometry": { "type": "Point", "coordinates": [ 174.7633, -36.8485 ] } },
{ "type": "Feature", "properties": { "latitude": -35.2809, "longitude": 149.13, "location": "Canberra", "year": 2016, "speech_count": 1 }, "geometry": { "type": "Point", "coordinates": [ 149.13, -35.2809 ] } },
{ "type": "Feature", "properties": { "latitude": -34.9285, "longitude": 138.5986, "location": "Adelaide", "year": 2016, "speech_count": 1 }, "geometry": { "type": "Point", "coordinates": [ 138.5986, -34.9285 ] } },
{ "type": "Feature", "properties": { "latitude": -33.9258, "longitude": 18.4232, "location": "Cape Town", "year": 2016, "speech_count": 1 }, "geometry": { "type": "Point", "coordinates": [ 18.4232, -33.9258 ] } },
{ "type": "Feature", "properties": { "latitude": -33.9249, "longitude": 18.4241, "location": "Cape Town", "year": 2016, "speech_count": 3 }, "geometry": { "type": "Point", "coordinates": [ 18.4241, -33.9249 ] } },
{ "type": "Feature", "properties": { "latitude": -33.9189, "longitude": 25.5688, "location": "Port Elizabeth", "year": 2016, "speech_count": 1 }, "geometry": { "type": "Point", "coordinates": [ 25.5688, -33.9189 ] } },
{ "type": "Feature", "properties": { "latitude": -33.8688, "longitude": 151.2093, "location": "Sydney", "year": 2016, "speech_count": 11 }, "geometry": { "type": "Point", "coordinates": [ 151.2093, -33.8688 ] } },
{ "type": "Feature", "properties": { "latitude": -33.8679, "longitude": 151.2073, "location": "Sydney", "year": 2016, "speech_count": 2 }, "geometry": { "type": "Point", "coordinates": [ 151.2073, -33.8679 ] } },
{ "type": "Feature", "properties": { "latitude": -33.4489, "longitude": -70.6693, "location": "Santiago", "year": 2016, "speech_count": 4 }, "geometry": { "type": "Point", "coordinates": [ -70.6693, -33.4489 ] } },
{ "type": "Feature", "properties": { "latitude": -29.8586, "longitude": 31.0223, "location": "Durban", "year": 2016, "speech_count": 1 }, "geometry": { "type": "Point", "coordinates": [ 31.0223, -29.8586 ] } },
{ "type": "Feature", "properties": { "latitude": -29.1009, "longitude": 26.2048, "location": "Bloemfontein", "year": 2016, "speech_count": 1 }, "geometry": { "type": "Point", "coordinates": [ 26.2048, -29.1009 ] } },
{ "type": "Feature", "properties": { "latitude": -28.7829, "longitude": 32.0386, "location": "Richards Bay", "year": 2016, "speech_count": 1 }, "geometry": { "type": "Point", "coordinates": [ 32.0386, -28.7829 ] } },
{ "type": "Feature", "properties": { "latitude": -27.4698, "longitude": 153.0251, "location": "Brisbane", "year": 2016, "speech_count": 1 }, "geometry": { "type": "Point", "coordinates": [ 153.0251, -27.4698 ] } },
{ "type": "Feature", "properties": { "latitude": -26.205, "longitude": 28.0497, "location": "Johannesburg", "year": 2016, "speech_count": 1 }, "geometry": { "type": "Point", "coordinates": [ 28.0497, -26.205 ] } },
{ "type": "Feature", "properties": { "latitude": -26.2041, "longitude": 28.0473, "location": "Johannesburg", "year": 2016, "speech_count": 5 }, "geometry": { "type": "Point", "coordinates": [ 28.0473, -26.2041 ] } },
{ "type": "Feature", "properties": { "latitude": -26.1025, "longitude": 28.0445, "location": "Sandton", "year": 2016, "speech_count": 1 }, "geometry": { "type": "Point", "coordinates": [ 28.0445, -26.1025 ] } },
{ "type": "Feature", "properties": { "latitude": -26.0216, "longitude": 27.9245, "location": "Muldersdrift", "year": 2016, "speech_count": 1 }, "geometry": { "type": "Point", "coordinates": [ 27.9245, -26.0216 ] } },
{ "type": "Feature", "properties": { "latitude": -25.7461, "longitude": 28.1881, "location": "Pretoria", "year": 2016, "speech_count": 5 }, "geometry": { "type": "Point", "coordinates": [ 28.1881, -25.7461 ] } },
{ "type": "Feature", "properties": { "latitude": -25.7461, "longitude": 28.2293, "location": "Pretoria", "year": 2016, "speech_count": 1 }, "geometry": { "type": "Point", "coordinates": [ 28.2293, -25.7461 ] } },
{ "type": "Feature", "properties": { "latitude": -24.6463, "longitude": 25.9119, "location": "Gaborone", "year": 2016, "speech_count": 1 }, "geometry": { "type": "Point", "coordinates": [ 25.9119, -24.6463 ] } },
{ "type": "Feature", "properties": { "latitude": -23.9167, "longitude": 29.4667, "location": "Polokwane", "year": 2016, "speech_count": 1 }, "geometry": { "type": "Point", "coordinates": [ 29.4667, -23.9167 ] } },
{ "type": "Feature", "properties": { "latitude": -23.5475, "longitude": -46.6361, "location": "São Paulo", "year": 2016, "speech_count": 1 }, "geometry": { "type": "Point", "coordinates": [ -46.6361, -23.5475 ] } },
{ "type": "Feature", "properties": { "latitude": -22.9068, "longitude": -43.1729, "location": "Rio de Janeiro", "year": 2016, "speech_count": 1 }, "geometry": { "type": "Point", "coordinates": [ -43.1729, -22.9068 ] } },
{ "type": "Feature", "properties": { "latitude": -20.2333, "longitude": 57.4667, "location": "Ebène", "year": 2016, "speech_count": 1 }, "geometry": { "type": "Point", "coordinates": [ 57.4667, -20.2333 ] } },
{ "type": "Feature", "properties": { "latitude": -20.025, "longitude": 57.5049, "location": "Point Aux Piments", "year": 2016, "speech_count": 1 }, "geometry": { "type": "Point", "coordinates": [ 57.5049, -20.025 ] } },
{ "type": "Feature", "properties": { "latitude": -18.1416, "longitude": 178.4419, "location": "Suva", "year": 2016, "speech_count": 3 }, "geometry": { "type": "Point", "coordinates": [ 178.4419, -18.1416 ] } },
{ "type": "Feature", "properties": { "latitude": -18.1336, "longitude": 178.45, "location": "Suva", "year": 2016, "speech_count": 1 }, "geometry": { "type": "Point", "coordinates": [ 178.45, -18.1336 ] } },
{ "type": "Feature", "properties": { "latitude": -18.1333, "longitude": 178.4167, "location": "Suva", "year": 2016, "speech_count": 1 }, "geometry": { "type": "Point", "coordinates": [ 178.4167, -18.1333 ] } },
{ "type": "Feature", "properties": { "latitude": -17.7657, "longitude": 177.3828, "location": "Denarau", "year": 2016, "speech_count": 1 }, "geometry": { "type": "Point", "coordinates": [ 177.3828, -17.7657 ] } },
{ "type": "Feature", "properties": { "latitude": -16.3989, "longitude": -71.535, "location": "Arequipa", "year": 2016, "speech_count": 1 }, "geometry": { "type": "Point", "coordinates": [ -71.535, -16.3989 ] } },
{ "type": "Feature", "properties": { "latitude": -15.7861, "longitude": 35.0058, "location": "Blantyre", "year": 2016, "speech_count": 1 }, "geometry": { "type": "Point", "coordinates": [ 35.0058, -15.7861 ] } },
{ "type": "Feature", "properties": { "latitude": -12.0464, "longitude": -77.0428, "location": "Lima", "year": 2016, "speech_count": 1 }, "geometry": { "type": "Point", "coordinates": [ -77.0428, -12.0464 ] } },
{ "type": "Feature", "properties": { "latitude": -9.4439, "longitude": 147.1962, "location": "Port Moresby", "year": 2016, "speech_count": 1 }, "geometry": { "type": "Point", "coordinates": [ 147.1962, -9.4439 ] } },
{ "type": "Feature", "properties": { "latitude": -9.4395, "longitude": 159.927, "location": "Honiara", "year": 2016, "speech_count": 1 }, "geometry": { "type": "Point", "coordinates": [ 159.927, -9.4395 ] } },
{ "type": "Feature", "properties": { "latitude": -8.4095, "longitude": 115.1889, "location": "Bali", "year": 2016, "speech_count": 1 }, "geometry": { "type": "Point", "coordinates": [ 115.1889, -8.4095 ] } },
{ "type": "Feature", "properties": { "latitude": -8.3779, "longitude": 115.1647, "location": "Bali", "year": 2016, "speech_count": 1 }, "geometry": { "type": "Point", "coordinates": [ 115.1647, -8.3779 ] } },
{ "type": "Feature", "properties": { "latitude": -8.3777, "longitude": 115.1667, "location": "Bali", "year": 2016, "speech_count": 1 }, "geometry": { "type": "Point", "coordinates": [ 115.1667, -8.3777 ] } },
{ "type": "Feature", "properties": { "latitude": -7.2575, "longitude": 112.7521, "location": "Surabaya", "year": 2016, "speech_count": 2 }, "geometry": { "type": "Point", "coordinates": [ 112.7521, -7.2575 ] } },
{ "type": "Feature", "properties": { "latitude": -6.2146, "longitude": 106.8451, "location": "Jakarta", "year": 2016, "speech_count": 1 }, "geometry": { "type": "Point", "coordinates": [ 106.8451, -6.2146 ] } },
{ "type": "Feature", "properties": { "latitude": -6.1754, "longitude": 106.8272, "location": "Jakarta", "year": 2016, "speech_count": 1 }, "geometry": { "type": "Point", "coordinates": [ 106.8272, -6.1754 ] } },
{ "type": "Feature", "properties": { "latitude": -6.1751, "longitude": 106.865, "location": "Jakarta", "year": 2016, "speech_count": 4 }, "geometry": { "type": "Point", "coordinates": [ 106.865, -6.1751 ] } },
{ "type": "Feature", "properties": { "latitude": -6.1744, "longitude": 106.8294, "location": "Jakarta", "year": 2016, "speech_count": 1 }, "geometry": { "type": "Point", "coordinates": [ 106.8294, -6.1744 ] } },
{ "type": "Feature", "properties": { "latitude": -4.6167, "longitude": 55.45, "location": "Victoria, Mahe", "year": 2016, "speech_count": 1 }, "geometry": { "type": "Point", "coordinates": [ 55.45, -4.6167 ] } },
{ "type": "Feature", "properties": { "latitude": -4.2833, "longitude": 39.5667, "location": "Diani", "year": 2016, "speech_count": 1 }, "geometry": { "type": "Point", "coordinates": [ 39.5667, -4.2833 ] } },
{ "type": "Feature", "properties": { "latitude": -1.2921, "longitude": 36.8219, "location": "Nairobi", "year": 2016, "speech_count": 12 }, "geometry": { "type": "Point", "coordinates": [ 36.8219, -1.2921 ] } },
{ "type": "Feature", "properties": { "latitude": -0.2273, "longitude": 32.6405, "location": "Munyonyo", "year": 2016, "speech_count": 1 }, "geometry": { "type": "Point", "coordinates": [ 32.6405, -0.2273 ] } },
{ "type": "Feature", "properties": { "latitude": 0.3156, "longitude": 32.5623, "location": "Kampala", "year": 2016, "speech_count": 2 }, "geometry": { "type": "Point", "coordinates": [ 32.5623, 0.3156 ] } },
{ "type": "Feature", "properties": { "latitude": 0.3156, "longitude": 32.5699, "location": "Kampala", "year": 2016, "speech_count": 1 }, "geometry": { "type": "Point", "coordinates": [ 32.5699, 0.3156 ] } },
{ "type": "Feature", "properties": { "latitude": 0.3156, "longitude": 32.5775, "location": "Kampala", "year": 2016, "speech_count": 1 }, "geometry": { "type": "Point", "coordinates": [ 32.5775, 0.3156 ] } },
{ "type": "Feature", "properties": { "latitude": 0.3156, "longitude": 32.5779, "location": "Kampala", "year": 2016, "speech_count": 1 }, "geometry": { "type": "Point", "coordinates": [ 32.5779, 0.3156 ] } },
{ "type": "Feature", "properties": { "latitude": 0.3156, "longitude": 32.5783, "location": "Bugolobi", "year": 2016, "speech_count": 1 }, "geometry": { "type": "Point", "coordinates": [ 32.5783, 0.3156 ] } },
{ "type": "Feature", "properties": { "latitude": 0.3157, "longitude": 32.5606, "location": "Kampala", "year": 2016, "speech_count": 2 }, "geometry": { "type": "Point", "coordinates": [ 32.5606, 0.3157 ] } },
{ "type": "Feature", "properties": { "latitude": 0.3157, "longitude": 32.5664, "location": "Kampala", "year": 2016, "speech_count": 1 }, "geometry": { "type": "Point", "coordinates": [ 32.5664, 0.3157 ] } },
{ "type": "Feature", "properties": { "latitude": 0.3157, "longitude": 32.5692, "location": "Kampala", "year": 2016, "speech_count": 2 }, "geometry": { "type": "Point", "coordinates": [ 32.5692, 0.3157 ] } },
{ "type": "Feature", "properties": { "latitude": 0.3157, "longitude": 32.5699, "location": "Kampala", "year": 2016, "speech_count": 1 }, "geometry": { "type": "Point", "coordinates": [ 32.5699, 0.3157 ] } },
{ "type": "Feature", "properties": { "latitude": 0.3157, "longitude": 32.5825, "location": "Kampala", "year": 2016, "speech_count": 1 }, "geometry": { "type": "Point", "coordinates": [ 32.5825, 0.3157 ] } },
{ "type": "Feature", "properties": { "latitude": 1.2833, "longitude": 103.8331, "location": "Singapore", "year": 2016, "speech_count": 3 }, "geometry": { "type": "Point", "coordinates": [ 103.8331, 1.2833 ] } },
{ "type": "Feature", "properties": { "latitude": 1.2833, "longitude": 103.8333, "location": "Singapore", "year": 2016, "speech_count": 1 }, "geometry": { "type": "Point", "coordinates": [ 103.8333, 1.2833 ] } },
{ "type": "Feature", "properties": { "latitude": 1.2894, "longitude": 103.85, "location": "Singapore", "year": 2016, "speech_count": 6 }, "geometry": { "type": "Point", "coordinates": [ 103.85, 1.2894 ] } },
{ "type": "Feature", "properties": { "latitude": 1.2894, "longitude": 103.8501, "location": "Singapore", "year": 2016, "speech_count": 1 }, "geometry": { "type": "Point", "coordinates": [ 103.8501, 1.2894 ] } },
{ "type": "Feature", "properties": { "latitude": 1.2894, "longitude": 103.8505, "location": "Singapore", "year": 2016, "speech_count": 1 }, "geometry": { "type": "Point", "coordinates": [ 103.8505, 1.2894 ] } },
{ "type": "Feature", "properties": { "latitude": 1.2902, "longitude": 103.8519, "location": "Singapore", "year": 2016, "speech_count": 1 }, "geometry": { "type": "Point", "coordinates": [ 103.8519, 1.2902 ] } },
{ "type": "Feature", "properties": { "latitude": 1.3521, "longitude": 103.8198, "location": "Singapore", "year": 2016, "speech_count": 5 }, "geometry": { "type": "Point", "coordinates": [ 103.8198, 1.3521 ] } },
{ "type": "Feature", "properties": { "latitude": 1.4637, "longitude": 103.7579, "location": "Johor Bahru", "year": 2016, "speech_count": 1 }, "geometry": { "type": "Point", "coordinates": [ 103.7579, 1.4637 ] } },
{ "type": "Feature", "properties": { "latitude": 3.139, "longitude": 101.6869, "location": "Kuala Lumpur", "year": 2016, "speech_count": 15 }, "geometry": { "type": "Point", "coordinates": [ 101.6869, 3.139 ] } },
{ "type": "Feature", "properties": { "latitude": 3.1408, "longitude": 101.6865, "location": "Kuala Lumpur", "year": 2016, "speech_count": 2 }, "geometry": { "type": "Point", "coordinates": [ 101.6865, 3.1408 ] } },
{ "type": "Feature", "properties": { "latitude": 3.1408, "longitude": 101.6868, "location": "Kuala Lumpur", "year": 2016, "speech_count": 3 }, "geometry": { "type": "Point", "coordinates": [ 101.6868, 3.1408 ] } },
{ "type": "Feature", "properties": { "latitude": 3.1408, "longitude": 101.6869, "location": "Kuala Lumpur", "year": 2016, "speech_count": 1 }, "geometry": { "type": "Point", "coordinates": [ 101.6869, 3.1408 ] } },
{ "type": "Feature", "properties": { "latitude": 3.1408, "longitude": 101.6931, "location": "Kuala Lumpur", "year": 2016, "speech_count": 6 }, "geometry": { "type": "Point", "coordinates": [ 101.6931, 3.1408 ] } },
{ "type": "Feature", "properties": { "latitude": 3.1478, "longitude": 101.6953, "location": "Kuala Lumpur", "year": 2016, "speech_count": 1 }, "geometry": { "type": "Point", "coordinates": [ 101.6953, 3.1478 ] } },
{ "type": "Feature", "properties": { "latitude": 3.1502, "longitude": 101.6865, "location": "Kuala Lumpur", "year": 2016, "speech_count": 1 }, "geometry": { "type": "Point", "coordinates": [ 101.6865, 3.1502 ] } },
{ "type": "Feature", "properties": { "latitude": 5.55, "longitude": -0.2167, "location": "Accra", "year": 2016, "speech_count": 2 }, "geometry": { "type": "Point", "coordinates": [ -0.2167, 5.55 ] } },
{ "type": "Feature", "properties": { "latitude": 6.9319, "longitude": 79.8478, "location": "Colombo", "year": 2016, "speech_count": 1 }, "geometry": { "type": "Point", "coordinates": [ 79.8478, 6.9319 ] } },
{ "type": "Feature", "properties": { "latitude": 7.3167, "longitude": -2.3167, "location": "Sunyani", "year": 2016, "speech_count": 1 }, "geometry": { "type": "Point", "coordinates": [ -2.3167, 7.3167 ] } },
{ "type": "Feature", "properties": { "latitude": 10.3157, "longitude": 123.8854, "location": "Cebu", "year": 2016, "speech_count": 1 }, "geometry": { "type": "Point", "coordinates": [ 123.8854, 10.3157 ] } },
{ "type": "Feature", "properties": { "latitude": 10.6918, "longitude": -61.2225, "location": "Port of Spain", "year": 2016, "speech_count": 1 }, "geometry": { "type": "Point", "coordinates": [ -61.2225, 10.6918 ] } },
{ "type": "Feature", "properties": { "latitude": 12.9716, "longitude": 77.5946, "location": "Bangalore", "year": 2016, "speech_count": 2 }, "geometry": { "type": "Point", "coordinates": [ 77.5946, 12.9716 ] } },
{ "type": "Feature", "properties": { "latitude": 13.0827, "longitude": 80.2707, "location": "Chennai", "year": 2016, "speech_count": 1 }, "geometry": { "type": "Point", "coordinates": [ 80.2707, 13.0827 ] } },
{ "type": "Feature", "properties": { "latitude": 13.1045, "longitude": -59.6139, "location": "Bridgetown", "year": 2016, "speech_count": 1 }, "geometry": { "type": "Point", "coordinates": [ -59.6139, 13.1045 ] } },
{ "type": "Feature", "properties": { "latitude": 13.7563, "longitude": 100.5018, "location": "Bangkok", "year": 2016, "speech_count": 8 }, "geometry": { "type": "Point", "coordinates": [ 100.5018, 13.7563 ] } },
{ "type": "Feature", "properties": { "latitude": 14.5322, "longitude": 121.0054, "location": "Pasay City", "year": 2016, "speech_count": 1 }, "geometry": { "type": "Point", "coordinates": [ 121.0054, 14.5322 ] } },
{ "type": "Feature", "properties": { "latitude": 14.5547, "longitude": 121.0244, "location": "Makati", "year": 2016, "speech_count": 6 }, "geometry": { "type": "Point", "coordinates": [ 121.0244, 14.5547 ] } },
{ "type": "Feature", "properties": { "latitude": 14.5547, "longitude": 121.0244, "location": "Makati-City", "year": 2016, "speech_count": 2 }, "geometry": { "type": "Point", "coordinates": [ 121.0244, 14.5547 ] } },
{ "type": "Feature", "properties": { "latitude": 14.5995, "longitude": 120.9842, "location": "Manila", "year": 2016, "speech_count": 17 }, "geometry": { "type": "Point", "coordinates": [ 120.9842, 14.5995 ] } },
{ "type": "Feature", "properties": { "latitude": 14.6244, "longitude": -90.5262, "location": "Guatemala City", "year": 2016, "speech_count": 1 }, "geometry": { "type": "Point", "coordinates": [ -90.5262, 14.6244 ] } },
{ "type": "Feature", "properties": { "latitude": 14.6487, "longitude": 121.0493, "location": "Quezon City", "year": 2016, "speech_count": 1 }, "geometry": { "type": "Point", "coordinates": [ 121.0493, 14.6487 ] } },
{ "type": "Feature", "properties": { "latitude": 17.385, "longitude": 78.4867, "location": "Hyderabad", "year": 2016, "speech_count": 4 }, "geometry": { "type": "Point", "coordinates": [ 78.4867, 17.385 ] } },
{ "type": "Feature", "properties": { "latitude": 18.4663, "longitude": -66.1057, "location": "San Juan", "year": 2016, "speech_count": 1 }, "geometry": { "type": "Point", "coordinates": [ -66.1057, 18.4663 ] } },
{ "type": "Feature", "properties": { "latitude": 19.076, "longitude": 72.8777, "location": "Bombay", "year": 2016, "speech_count": 22 }, "geometry": { "type": "Point", "coordinates": [ 72.8777, 19.076 ] } },
{ "type": "Feature", "properties": { "latitude": 19.4326, "longitude": -99.1332, "location": "Mexico City", "year": 2016, "speech_count": 3 }, "geometry": { "type": "Point", "coordinates": [ -99.1332, 19.4326 ] } },
{ "type": "Feature", "properties": { "latitude": 22.2855, "longitude": 114.1577, "location": "Hong Kong", "year": 2016, "speech_count": 2 }, "geometry": { "type": "Point", "coordinates": [ 114.1577, 22.2855 ] } },
{ "type": "Feature", "properties": { "latitude": 22.3027, "longitude": 114.1773, "location": "Hong Kong", "year": 2016, "speech_count": 1 }, "geometry": { "type": "Point", "coordinates": [ 114.1773, 22.3027 ] } },
{ "type": "Feature", "properties": { "latitude": 22.3027, "longitude": 114.1777, "location": "Hong Kong", "year": 2016, "speech_count": 2 }, "geometry": { "type": "Point", "coordinates": [ 114.1777, 22.3027 ] } },
{ "type": "Feature", "properties": { "latitude": 22.3193, "longitude": 114.1694, "location": "Hong Kong", "year": 2016, "speech_count": 4 }, "geometry": { "type": "Point", "coordinates": [ 114.1694, 22.3193 ] } },
{ "type": "Feature", "properties": { "latitude": 22.3964, "longitude": 114.1095, "location": "Hong Kong", "year": 2016, "speech_count": 1 }, "geometry": { "type": "Point", "coordinates": [ 114.1095, 22.3964 ] } },
{ "type": "Feature", "properties": { "latitude": 24.4667, "longitude": 54.3667, "location": "Abu Dhabi, United Arab Emirates", "year": 2016, "speech_count": 1 }, "geometry": { "type": "Point", "coordinates": [ 54.3667, 24.4667 ] } },
{ "type": "Feature", "properties": { "latitude": 24.8607, "longitude": 67.0011, "location": "Karachi", "year": 2016, "speech_count": 3 }, "geometry": { "type": "Point", "coordinates": [ 67.0011, 24.8607 ] } },
{ "type": "Feature", "properties": { "latitude": 25.0776, "longitude": -77.3433, "location": "Nassau", "year": 2016, "speech_count": 1 }, "geometry": { "type": "Point", "coordinates": [ -77.3433, 25.0776 ] } },
{ "type": "Feature", "properties": { "latitude": 25.3176, "longitude": 82.9739, "location": "Varanasi", "year": 2016, "speech_count": 1 }, "geometry": { "type": "Point", "coordinates": [ 82.9739, 25.3176 ] } },
{ "type": "Feature", "properties": { "latitude": 26.2124, "longitude": 127.6811, "location": "Okinawa", "year": 2016, "speech_count": 1 }, "geometry": { "type": "Point", "coordinates": [ 127.6811, 26.2124 ] } },
{ "type": "Feature", "properties": { "latitude": 26.5344, "longitude": -78.7211, "location": "Freeport, Grand Bahama", "year": 2016, "speech_count": 1 }, "geometry": { "type": "Point", "coordinates": [ -78.7211, 26.5344 ] } },
{ "type": "Feature", "properties": { "latitude": 26.8467, "longitude": 80.9462, "location": "Lucknow", "year": 2016, "speech_count": 1 }, "geometry": { "type": "Point", "coordinates": [ 80.9462, 26.8467 ] } },
{ "type": "Feature", "properties": { "latitude": 27.7172, "longitude": 85.324, "location": "Kathmandu", "year": 2016, "speech_count": 2 }, "geometry": { "type": "Point", "coordinates": [ 85.324, 27.7172 ] } },
{ "type": "Feature", "properties": { "latitude": 27.7663, "longitude": -81.6867, "location": "Florida", "year": 2016, "speech_count": 1 }, "geometry": { "type": "Point", "coordinates": [ -81.6867, 27.7663 ] } },
{ "type": "Feature", "properties": { "latitude": 28.6139, "longitude": 77.2089, "location": "Delhi", "year": 2016, "speech_count": 4 }, "geometry": { "type": "Point", "coordinates": [ 77.2089, 28.6139 ] } },
{ "type": "Feature", "properties": { "latitude": 28.6139, "longitude": 77.209, "location": "Delhi", "year": 2016, "speech_count": 5 }, "geometry": { "type": "Point", "coordinates": [ 77.209, 28.6139 ] } },
{ "type": "Feature", "properties": { "latitude": 29.7604, "longitude": -95.3698, "location": "Houston", "year": 2016, "speech_count": 1 }, "geometry": { "type": "Point", "coordinates": [ -95.3698, 29.7604 ] } },
{ "type": "Feature", "properties": { "latitude": 30.2741, "longitude": 120.1557, "location": "Hangzhou, Zhejiang", "year": 2016, "speech_count": 1 }, "geometry": { "type": "Point", "coordinates": [ 120.1557, 30.2741 ] } },
{ "type": "Feature", "properties": { "latitude": 30.6278, "longitude": -96.3344, "location": "College Station", "year": 2016, "speech_count": 1 }, "geometry": { "type": "Point", "coordinates": [ -96.3344, 30.6278 ] } },
{ "type": "Feature", "properties": { "latitude": 31.2304, "longitude": 121.4737, "location": "Shanghai", "year": 2016, "speech_count": 4 }, "geometry": { "type": "Point", "coordinates": [ 121.4737, 31.2304 ] } },
{ "type": "Feature", "properties": { "latitude": 31.56, "longitude": 130.5556, "location": "Kagoshima", "year": 2016, "speech_count": 1 }, "geometry": { "type": "Point", "coordinates": [ 130.5556, 31.56 ] } },
{ "type": "Feature", "properties": { "latitude": 32.0853, "longitude": 34.7818, "location": "Tel Aviv", "year": 2016, "speech_count": 8 }, "geometry": { "type": "Point", "coordinates": [ 34.7818, 32.0853 ] } },
{ "type": "Feature", "properties": { "latitude": 32.1797, "longitude": 34.8282, "location": "Herzliya", "year": 2016, "speech_count": 1 }, "geometry": { "type": "Point", "coordinates": [ 34.8282, 32.1797 ] } },
{ "type": "Feature", "properties": { "latitude": 32.7367, "longitude": 129.8612, "location": "Nagasaki", "year": 2016, "speech_count": 1 }, "geometry": { "type": "Point", "coordinates": [ 129.8612, 32.7367 ] } },
{ "type": "Feature", "properties": { "latitude": 33.6065, "longitude": 130.4181, "location": "Fukuoka", "year": 2016, "speech_count": 1 }, "geometry": { "type": "Point", "coordinates": [ 130.4181, 33.6065 ] } },
{ "type": "Feature", "properties": { "latitude": 33.6751, "longitude": 73.1544, "location": "Islamabad", "year": 2016, "speech_count": 1 }, "geometry": { "type": "Point", "coordinates": [ 73.1544, 33.6751 ] } },
{ "type": "Feature", "properties": { "latitude": 33.6844, "longitude": 73.0479, "location": "Islamabad", "year": 2016, "speech_count": 1 }, "geometry": { "type": "Point", "coordinates": [ 73.0479, 33.6844 ] } },
{ "type": "Feature", "properties": { "latitude": 34.0522, "longitude": -118.2437, "location": "Los Angeles", "year": 2016, "speech_count": 1 }, "geometry": { "type": "Point", "coordinates": [ -118.2437, 34.0522 ] } },
{ "type": "Feature", "properties": { "latitude": 34.6913, "longitude": 135.183, "location": "Hyogo", "year": 2016, "speech_count": 1 }, "geometry": { "type": "Point", "coordinates": [ 135.183, 34.6913 ] } },
{ "type": "Feature", "properties": { "latitude": 34.6937, "longitude": 135.5022, "location": "Osaka", "year": 2016, "speech_count": 1 }, "geometry": { "type": "Point", "coordinates": [ 135.5022, 34.6937 ] } },
{ "type": "Feature", "properties": { "latitude": 35.0043, "longitude": 135.8684, "location": "Shiga", "year": 2016, "speech_count": 1 }, "geometry": { "type": "Point", "coordinates": [ 135.8684, 35.0043 ] } },
{ "type": "Feature", "properties": { "latitude": 35.1815, "longitude": 136.9064, "location": "Nagoya", "year": 2016, "speech_count": 1 }, "geometry": { "type": "Point", "coordinates": [ 136.9064, 35.1815 ] } },
{ "type": "Feature", "properties": { "latitude": 35.4478, "longitude": 139.6425, "location": "Kanagawa", "year": 2016, "speech_count": 1 }, "geometry": { "type": "Point", "coordinates": [ 139.6425, 35.4478 ] } },
{ "type": "Feature", "properties": { "latitude": 35.6895, "longitude": 139.6917, "location": "Tokyo", "year": 2016, "speech_count": 20 }, "geometry": { "type": "Point", "coordinates": [ 139.6917, 35.6895 ] } },
{ "type": "Feature", "properties": { "latitude": 35.8617, "longitude": 104.1954, "location": "China", "year": 2016, "speech_count": 1 }, "geometry": { "type": "Point", "coordinates": [ 104.1954, 35.8617 ] } },
{ "type": "Feature", "properties": { "latitude": 35.9078, "longitude": 14.4934, "location": "Saint Julian's", "year": 2016, "speech_count": 1 }, "geometry": { "type": "Point", "coordinates": [ 14.4934, 35.9078 ] } },
{ "type": "Feature", "properties": { "latitude": 36.2048, "longitude": 138.2529, "location": "Japan", "year": 2016, "speech_count": 1 }, "geometry": { "type": "Point", "coordinates": [ 138.2529, 36.2048 ] } },
{ "type": "Feature", "properties": { "latitude": 36.6513, "longitude": 138.1811, "location": "Nagano", "year": 2016, "speech_count": 1 }, "geometry": { "type": "Point", "coordinates": [ 138.1811, 36.6513 ] } },
{ "type": "Feature", "properties": { "latitude": 36.6953, "longitude": 136.6256, "location": "Ishikawa", "year": 2016, "speech_count": 1 }, "geometry": { "type": "Point", "coordinates": [ 136.6256, 36.6953 ] } },
{ "type": "Feature", "properties": { "latitude": 36.763, "longitude": 3.0506, "location": "Algiers", "year": 2016, "speech_count": 1 }, "geometry": { "type": "Point", "coordinates": [ 3.0506, 36.763 ] } },
{ "type": "Feature", "properties": { "latitude": 36.8412, "longitude": -2.4652, "location": "Almeria", "year": 2016, "speech_count": 1 }, "geometry": { "type": "Point", "coordinates": [ -2.4652, 36.8412 ] } },
{ "type": "Feature", "properties": { "latitude": 37.5665, "longitude": 126.978, "location": "Seoul", "year": 2016, "speech_count": 4 }, "geometry": { "type": "Point", "coordinates": [ 126.978, 37.5665 ] } },
{ "type": "Feature", "properties": { "latitude": 37.7749, "longitude": -122.4194, "location": "San Francisco", "year": 2016, "speech_count": 5 }, "geometry": { "type": "Point", "coordinates": [ -122.4194, 37.7749 ] } },
{ "type": "Feature", "properties": { "latitude": 37.7853, "longitude": -79.4342, "location": "Lexington", "year": 2016, "speech_count": 1 }, "geometry": { "type": "Point", "coordinates": [ -79.4342, 37.7853 ] } },
{ "type": "Feature", "properties": { "latitude": 37.9161, "longitude": 139.0363, "location": "Niigata", "year": 2016, "speech_count": 1 }, "geometry": { "type": "Point", "coordinates": [ 139.0363, 37.9161 ] } },
{ "type": "Feature", "properties": { "latitude": 37.9792, "longitude": 23.7166, "location": "Athens", "year": 2016, "speech_count": 1 }, "geometry": { "type": "Point", "coordinates": [ 23.7166, 37.9792 ] } },
{ "type": "Feature", "properties": { "latitude": 37.9838, "longitude": 23.7275, "location": "Athens", "year": 2016, "speech_count": 12 }, "geometry": { "type": "Point", "coordinates": [ 23.7275, 37.9838 ] } },
{ "type": "Feature", "properties": { "latitude": 38.627, "longitude": -90.1994, "location": "St. Louis", "year": 2016, "speech_count": 2 }, "geometry": { "type": "Point", "coordinates": [ -90.1994, 38.627 ] } },
{ "type": "Feature", "properties": { "latitude": 38.7167, "longitude": -9.1333, "location": "Lisbon", "year": 2016, "speech_count": 2 }, "geometry": { "type": "Point", "coordinates": [ -9.1333, 38.7167 ] } },
{ "type": "Feature", "properties": { "latitude": 38.7995, "longitude": -9.3914, "location": "Sintra", "year": 2016, "speech_count": 1 }, "geometry": { "type": "Point", "coordinates": [ -9.3914, 38.7995 ] } },
{ "type": "Feature", "properties": { "latitude": 38.8951, "longitude": -77.0364, "location": "Washington", "year": 2016, "speech_count": 37 }, "geometry": { "type": "Point", "coordinates": [ -77.0364, 38.8951 ] } },
{ "type": "Feature", "properties": { "latitude": 39.0997, "longitude": -94.5786, "location": "Kansas City", "year": 2016, "speech_count": 1 }, "geometry": { "type": "Point", "coordinates": [ -94.5786, 39.0997 ] } },
{ "type": "Feature", "properties": { "latitude": 39.1936, "longitude": -106.8231, "location": "Aspen", "year": 2016, "speech_count": 1 }, "geometry": { "type": "Point", "coordinates": [ -106.8231, 39.1936 ] } },
{ "type": "Feature", "properties": { "latitude": 39.2904, "longitude": -76.6122, "location": "Baltimore", "year": 2016, "speech_count": 1 }, "geometry": { "type": "Point", "coordinates": [ -76.6122, 39.2904 ] } },
{ "type": "Feature", "properties": { "latitude": 39.7186, "longitude": 140.1025, "location": "Akita", "year": 2016, "speech_count": 1 }, "geometry": { "type": "Point", "coordinates": [ 140.1025, 39.7186 ] } },
{ "type": "Feature", "properties": { "latitude": 39.7684, "longitude": -86.1581, "location": "Indianapolis, Indiana", "year": 2016, "speech_count": 1 }, "geometry": { "type": "Point", "coordinates": [ -86.1581, 39.7684 ] } },
{ "type": "Feature", "properties": { "latitude": 39.9042, "longitude": 116.4074, "location": "Beijing", "year": 2016, "speech_count": 2 }, "geometry": { "type": "Point", "coordinates": [ 116.4074, 39.9042 ] } },
{ "type": "Feature", "properties": { "latitude": 39.9439, "longitude": 32.8541, "location": "Ankara", "year": 2016, "speech_count": 1 }, "geometry": { "type": "Point", "coordinates": [ 32.8541, 39.9439 ] } },
{ "type": "Feature", "properties": { "latitude": 39.9439, "longitude": 32.856, "location": "Ankara", "year": 2016, "speech_count": 1 }, "geometry": { "type": "Point", "coordinates": [ 32.856, 39.9439 ] } },
{ "type": "Feature", "properties": { "latitude": 39.9526, "longitude": -75.1652, "location": "Philadelphia", "year": 2016, "speech_count": 1 }, "geometry": { "type": "Point", "coordinates": [ -75.1652, 39.9526 ] } },
{ "type": "Feature", "properties": { "latitude": 40.4167, "longitude": -3.7033, "location": "Madrid", "year": 2016, "speech_count": 2 }, "geometry": { "type": "Point", "coordinates": [ -3.7033, 40.4167 ] } },
{ "type": "Feature", "properties": { "latitude": 40.4168, "longitude": -3.7038, "location": "Madrid", "year": 2016, "speech_count": 12 }, "geometry": { "type": "Point", "coordinates": [ -3.7038, 40.4168 ] } },
{ "type": "Feature", "properties": { "latitude": 40.7127, "longitude": -74.0059, "location": "New York", "year": 2016, "speech_count": 11 }, "geometry": { "type": "Point", "coordinates": [ -74.0059, 40.7127 ] } },
{ "type": "Feature", "properties": { "latitude": 40.7128, "longitude": -74.006, "location": "New York", "year": 2016, "speech_count": 6 }, "geometry": { "type": "Point", "coordinates": [ -74.006, 40.7128 ] } },
{ "type": "Feature", "properties": { "latitude": 40.7128, "longitude": -74.0059, "location": "New York", "year": 2016, "speech_count": 34 }, "geometry": { "type": "Point", "coordinates": [ -74.0059, 40.7128 ] } },
{ "type": "Feature", "properties": { "latitude": 41.0082, "longitude": 28.9784, "location": "Istanbul", "year": 2016, "speech_count": 1 }, "geometry": { "type": "Point", "coordinates": [ 28.9784, 41.0082 ] } },
{ "type": "Feature", "properties": { "latitude": 41.1132, "longitude": 20.7992, "location": "Ohrid", "year": 2016, "speech_count": 1 }, "geometry": { "type": "Point", "coordinates": [ 20.7992, 41.1132 ] } },
{ "type": "Feature", "properties": { "latitude": 41.1401, "longitude": -73.7182, "location": "Armonk, New York", "year": 2016, "speech_count": 1 }, "geometry": { "type": "Point", "coordinates": [ -73.7182, 41.1401 ] } },
{ "type": "Feature", "properties": { "latitude": 41.1825, "longitude": -73.1951, "location": "Bridgeport, Connecticut", "year": 2016, "speech_count": 1 }, "geometry": { "type": "Point", "coordinates": [ -73.1951, 41.1825 ] } },
{ "type": "Feature", "properties": { "latitude": 41.3081, "longitude": -72.9282, "location": "New Haven", "year": 2016, "speech_count": 1 }, "geometry": { "type": "Point", "coordinates": [ -72.9282, 41.3081 ] } },
{ "type": "Feature", "properties": { "latitude": 41.3083, "longitude": -72.9279, "location": "New Haven", "year": 2016, "speech_count": 1 }, "geometry": { "type": "Point", "coordinates": [ -72.9279, 41.3083 ] } },
{ "type": "Feature", "properties": { "latitude": 41.3275, "longitude": 19.8187, "location": "Tirana", "year": 2016, "speech_count": 4 }, "geometry": { "type": "Point", "coordinates": [ 19.8187, 41.3275 ] } },
{ "type": "Feature", "properties": { "latitude": 41.3275, "longitude": 19.8189, "location": "Tirana", "year": 2016, "speech_count": 6 }, "geometry": { "type": "Point", "coordinates": [ 19.8189, 41.3275 ] } },
{ "type": "Feature", "properties": { "latitude": 41.4018, "longitude": -73.9038, "location": "Annandale-on-Hudson", "year": 2016, "speech_count": 1 }, "geometry": { "type": "Point", "coordinates": [ -73.9038, 41.4018 ] } },
{ "type": "Feature", "properties": { "latitude": 41.8781, "longitude": -87.6298, "location": "Chicago", "year": 2016, "speech_count": 3 }, "geometry": { "type": "Point", "coordinates": [ -87.6298, 41.8781 ] } },
{ "type": "Feature", "properties": { "latitude": 41.8902, "longitude": 12.4922, "location": "Rome", "year": 2016, "speech_count": 2 }, "geometry": { "type": "Point", "coordinates": [ 12.4922, 41.8902 ] } },
{ "type": "Feature", "properties": { "latitude": 41.8902, "longitude": 12.4923, "location": "Rome", "year": 2016, "speech_count": 13 }, "geometry": { "type": "Point", "coordinates": [ 12.4923, 41.8902 ] } },
{ "type": "Feature", "properties": { "latitude": 41.9966, "longitude": 21.4316, "location": "Skopje", "year": 2016, "speech_count": 1 }, "geometry": { "type": "Point", "coordinates": [ 21.4316, 41.9966 ] } },
{ "type": "Feature", "properties": { "latitude": 41.9973, "longitude": 21.4279, "location": "Skopje", "year": 2016, "speech_count": 1 }, "geometry": { "type": "Point", "coordinates": [ 21.4279, 41.9973 ] } },
{ "type": "Feature", "properties": { "latitude": 41.9974, "longitude": 21.4275, "location": "Skopje", "year": 2016, "speech_count": 1 }, "geometry": { "type": "Point", "coordinates": [ 21.4275, 41.9974 ] } },
{ "type": "Feature", "properties": { "latitude": 41.9979, "longitude": 21.4279, "location": "Skopje", "year": 2016, "speech_count": 1 }, "geometry": { "type": "Point", "coordinates": [ 21.4279, 41.9979 ] } },
{ "type": "Feature", "properties": { "latitude": 42.3154, "longitude": -83.0397, "location": "Windsor", "year": 2016, "speech_count": 1 }, "geometry": { "type": "Point", "coordinates": [ -83.0397, 42.3154 ] } },
{ "type": "Feature", "properties": { "latitude": 42.3581, "longitude": -71.0636, "location": "Boston", "year": 2016, "speech_count": 1 }, "geometry": { "type": "Point", "coordinates": [ -71.0636, 42.3581 ] } },
{ "type": "Feature", "properties": { "latitude": 42.3601, "longitude": -71.0589, "location": "Boston", "year": 2016, "speech_count": 1 }, "geometry": { "type": "Point", "coordinates": [ -71.0589, 42.3601 ] } },
{ "type": "Feature", "properties": { "latitude": 42.3601, "longitude": -71.0589, "location": "Cambridge", "year": 2016, "speech_count": 1 }, "geometry": { "type": "Point", "coordinates": [ -71.0589, 42.3601 ] } },
{ "type": "Feature", "properties": { "latitude": 42.3736, "longitude": -71.1097, "location": "Cambridge", "year": 2016, "speech_count": 1 }, "geometry": { "type": "Point", "coordinates": [ -71.1097, 42.3736 ] } },
{ "type": "Feature", "properties": { "latitude": 42.4951, "longitude": 14.1714, "location": "Montesilvano", "year": 2016, "speech_count": 1 }, "geometry": { "type": "Point", "coordinates": [ 14.1714, 42.4951 ] } },
{ "type": "Feature", "properties": { "latitude": 42.5105, "longitude": 27.4683, "location": "Burgas", "year": 2016, "speech_count": 1 }, "geometry": { "type": "Point", "coordinates": [ 27.4683, 42.5105 ] } },
{ "type": "Feature", "properties": { "latitude": 42.6983, "longitude": 23.3199, "location": "Sofia", "year": 2016, "speech_count": 1 }, "geometry": { "type": "Point", "coordinates": [ 23.3199, 42.6983 ] } },
{ "type": "Feature", "properties": { "latitude": 42.99, "longitude": 144.38, "location": "Kushiro", "year": 2016, "speech_count": 1 }, "geometry": { "type": "Point", "coordinates": [ 144.38, 42.99 ] } },
{ "type": "Feature", "properties": { "latitude": 43.2909, "longitude": 20.8318, "location": "Kopaonik", "year": 2016, "speech_count": 1 }, "geometry": { "type": "Point", "coordinates": [ 20.8318, 43.2909 ] } },
{ "type": "Feature", "properties": { "latitude": 43.4625, "longitude": -3.8031, "location": "Santander", "year": 2016, "speech_count": 1 }, "geometry": { "type": "Point", "coordinates": [ -3.8031, 43.4625 ] } },
{ "type": "Feature", "properties": { "latitude": 43.4632, "longitude": -80.5204, "location": "Waterloo", "year": 2016, "speech_count": 1 }, "geometry": { "type": "Point", "coordinates": [ -80.5204, 43.4632 ] } },
{ "type": "Feature", "properties": { "latitude": 43.4799, "longitude": -110.8037, "location": "Jackson Hole", "year": 2016, "speech_count": 4 }, "geometry": { "type": "Point", "coordinates": [ -110.8037, 43.4799 ] } },
{ "type": "Feature", "properties": { "latitude": 43.4799, "longitude": -110.7624, "location": "Jackson Hole", "year": 2016, "speech_count": 1 }, "geometry": { "type": "Point", "coordinates": [ -110.7624, 43.4799 ] } },
{ "type": "Feature", "properties": { "latitude": 43.5497, "longitude": -80.2442, "location": "Guelph", "year": 2016, "speech_count": 1 }, "geometry": { "type": "Point", "coordinates": [ -80.2442, 43.5497 ] } },
{ "type": "Feature", "properties": { "latitude": 43.6532, "longitude": -79.3832, "location": "Toronto", "year": 2016, "speech_count": 1 }, "geometry": { "type": "Point", "coordinates": [ -79.3832, 43.6532 ] } },
{ "type": "Feature", "properties": { "latitude": 43.7696, "longitude": 11.2558, "location": "Florence", "year": 2016, "speech_count": 2 }, "geometry": { "type": "Point", "coordinates": [ 11.2558, 43.7696 ] } },
{ "type": "Feature", "properties": { "latitude": 44.0614, "longitude": 12.5667, "location": "Rimini", "year": 2016, "speech_count": 1 }, "geometry": { "type": "Point", "coordinates": [ 12.5667, 44.0614 ] } },
{ "type": "Feature", "properties": { "latitude": 44.4322, "longitude": 26.1062, "location": "Bucharest", "year": 2016, "speech_count": 1 }, "geometry": { "type": "Point", "coordinates": [ 26.1062, 44.4322 ] } },
{ "type": "Feature", "properties": { "latitude": 44.4322, "longitude": 26.1063, "location": "Bucharest", "year": 2016, "speech_count": 2 }, "geometry": { "type": "Point", "coordinates": [ 26.1063, 44.4322 ] } },
{ "type": "Feature", "properties": { "latitude": 44.4944, "longitude": 33.5869, "location": "Balaclava", "year": 2016, "speech_count": 2 }, "geometry": { "type": "Point", "coordinates": [ 33.5869, 44.4944 ] } },
{ "type": "Feature", "properties": { "latitude": 44.5159, "longitude": 33.5806, "location": "Balaclava", "year": 2016, "speech_count": 1 }, "geometry": { "type": "Point", "coordinates": [ 33.5806, 44.5159 ] } },
{ "type": "Feature", "properties": { "latitude": 44.6488, "longitude": -63.5752, "location": "Halifax", "year": 2016, "speech_count": 1 }, "geometry": { "type": "Point", "coordinates": [ -63.5752, 44.6488 ] } },
{ "type": "Feature", "properties": { "latitude": 44.8048, "longitude": 20.4781, "location": "Belgrade", "year": 2016, "speech_count": 1 }, "geometry": { "type": "Point", "coordinates": [ 20.4781, 44.8048 ] } },
{ "type": "Feature", "properties": { "latitude": 44.8186, "longitude": 20.4681, "location": "Belgrade", "year": 2016, "speech_count": 5 }, "geometry": { "type": "Point", "coordinates": [ 20.4681, 44.8186 ] } },
{ "type": "Feature", "properties": { "latitude": 44.9778, "longitude": -93.265, "location": "Minneapolis", "year": 2016, "speech_count": 1 }, "geometry": { "type": "Point", "coordinates": [ -93.265, 44.9778 ] } },
{ "type": "Feature", "properties": { "latitude": 44.9833, "longitude": 7.7167, "location": "Moncalieri", "year": 2016, "speech_count": 1 }, "geometry": { "type": "Point", "coordinates": [ 7.7167, 44.9833 ] } },
{ "type": "Feature", "properties": { "latitude": 45.0678, "longitude": 7.6869, "location": "Turin", "year": 2016, "speech_count": 1 }, "geometry": { "type": "Point", "coordinates": [ 7.6869, 45.0678 ] } },
{ "type": "Feature", "properties": { "latitude": 45.0703, "longitude": 7.6869, "location": "Turin", "year": 2016, "speech_count": 1 }, "geometry": { "type": "Point", "coordinates": [ 7.6869, 45.0703 ] } },
{ "type": "Feature", "properties": { "latitude": 45.4215, "longitude": -75.6972, "location": "Ottawa", "year": 2016, "speech_count": 8 }, "geometry": { "type": "Point", "coordinates": [ -75.6972, 45.4215 ] } },
{ "type": "Feature", "properties": { "latitude": 45.4215, "longitude": -75.6919, "location": "Ottawa", "year": 2016, "speech_count": 3 }, "geometry": { "type": "Point", "coordinates": [ -75.6919, 45.4215 ] } },
{ "type": "Feature", "properties": { "latitude": 45.4642, "longitude": 9.1895, "location": "Milan", "year": 2016, "speech_count": 2 }, "geometry": { "type": "Point", "coordinates": [ 9.1895, 45.4642 ] } },
{ "type": "Feature", "properties": { "latitude": 45.4799, "longitude": -75.7121, "location": "Gatineau", "year": 2016, "speech_count": 1 }, "geometry": { "type": "Point", "coordinates": [ -75.7121, 45.4799 ] } },
{ "type": "Feature", "properties": { "latitude": 45.5017, "longitude": -73.5673, "location": "Montréal", "year": 2016, "speech_count": 1 }, "geometry": { "type": "Point", "coordinates": [ -73.5673, 45.5017 ] } },
{ "type": "Feature", "properties": { "latitude": 45.5134, "longitude": 13.6278, "location": "Portorož", "year": 2016, "speech_count": 1 }, "geometry": { "type": "Point", "coordinates": [ 13.6278, 45.5134 ] } },
{ "type": "Feature", "properties": { "latitude": 45.5225, "longitude": 11.4811, "location": "Altavilla Vicentina", "year": 2016, "speech_count": 1 }, "geometry": { "type": "Point", "coordinates": [ 11.4811, 45.5225 ] } },
{ "type": "Feature", "properties": { "latitude": 45.8119, "longitude": 9.0814, "location": "Cernobbio", "year": 2016, "speech_count": 1 }, "geometry": { "type": "Point", "coordinates": [ 9.0814, 45.8119 ] } },
{ "type": "Feature", "properties": { "latitude": 45.815, "longitude": 15.9819, "location": "Zagreb", "year": 2016, "speech_count": 1 }, "geometry": { "type": "Point", "coordinates": [ 15.9819, 45.815 ] } },
{ "type": "Feature", "properties": { "latitude": 45.8278, "longitude": 9.0781, "location": "Cernobbio", "year": 2016, "speech_count": 1 }, "geometry": { "type": "Point", "coordinates": [ 9.0781, 45.8278 ] } },
{ "type": "Feature", "properties": { "latitude": 46.0694, "longitude": 11.1124, "location": "Trento", "year": 2016, "speech_count": 1 }, "geometry": { "type": "Point", "coordinates": [ 11.1124, 46.0694 ] } },
{ "type": "Feature", "properties": { "latitude": 46.2021, "longitude": 6.1432, "location": "Geneva", "year": 2016, "speech_count": 2 }, "geometry": { "type": "Point", "coordinates": [ 6.1432, 46.2021 ] } },
{ "type": "Feature", "properties": { "latitude": 46.2044, "longitude": 6.1432, "location": "Geneva", "year": 2016, "speech_count": 2 }, "geometry": { "type": "Point", "coordinates": [ 6.1432, 46.2044 ] } },
{ "type": "Feature", "properties": { "latitude": 46.3434, "longitude": -72.5491, "location": "Trois-Rivières", "year": 2016, "speech_count": 1 }, "geometry": { "type": "Point", "coordinates": [ -72.5491, 46.3434 ] } },
{ "type": "Feature", "properties": { "latitude": 46.8139, "longitude": -71.208, "location": "Québec, Québec", "year": 2016, "speech_count": 1 }, "geometry": { "type": "Point", "coordinates": [ -71.208, 46.8139 ] } },
{ "type": "Feature", "properties": { "latitude": 46.9479, "longitude": 7.4446, "location": "Berne", "year": 2016, "speech_count": 1 }, "geometry": { "type": "Point", "coordinates": [ 7.4446, 46.9479 ] } },
{ "type": "Feature", "properties": { "latitude": 46.948, "longitude": 7.4458, "location": "Berne", "year": 2016, "speech_count": 2 }, "geometry": { "type": "Point", "coordinates": [ 7.4458, 46.948 ] } },
{ "type": "Feature", "properties": { "latitude": 46.948, "longitude": 7.4474, "location": "Berne", "year": 2016, "speech_count": 5 }, "geometry": { "type": "Point", "coordinates": [ 7.4474, 46.948 ] } },
{ "type": "Feature", "properties": { "latitude": 47.0506, "longitude": 8.3076, "location": "Lucerne", "year": 2016, "speech_count": 2 }, "geometry": { "type": "Point", "coordinates": [ 8.3076, 47.0506 ] } },
{ "type": "Feature", "properties": { "latitude": 47.0506, "longitude": 8.3076, "location": "Luzern", "year": 2016, "speech_count": 1 }, "geometry": { "type": "Point", "coordinates": [ 8.3076, 47.0506 ] } },
{ "type": "Feature", "properties": { "latitude": 47.141, "longitude": 9.5215, "location": "Vaduz", "year": 2016, "speech_count": 1 }, "geometry": { "type": "Point", "coordinates": [ 9.5215, 47.141 ] } },
{ "type": "Feature", "properties": { "latitude": 47.1667, "longitude": 8.5167, "location": "Zug", "year": 2016, "speech_count": 1 }, "geometry": { "type": "Point", "coordinates": [ 8.5167, 47.1667 ] } },
{ "type": "Feature", "properties": { "latitude": 47.3769, "longitude": 8.5417, "location": "Zurich", "year": 2016, "speech_count": 5 }, "geometry": { "type": "Point", "coordinates": [ 8.5417, 47.3769 ] } },
{ "type": "Feature", "properties": { "latitude": 47.4116, "longitude": 19.074, "location": "Southeast European and Asian countries", "year": 2016, "speech_count": 1 }, "geometry": { "type": "Point", "coordinates": [ 19.074, 47.4116 ] } },
{ "type": "Feature", "properties": { "latitude": 47.4979, "longitude": 19.0402, "location": "Budapest", "year": 2016, "speech_count": 1 }, "geometry": { "type": "Point", "coordinates": [ 19.0402, 47.4979 ] } },
{ "type": "Feature", "properties": { "latitude": 47.5581, "longitude": 7.5898, "location": "Basel", "year": 2016, "speech_count": 1 }, "geometry": { "type": "Point", "coordinates": [ 7.5898, 47.5581 ] } },
{ "type": "Feature", "properties": { "latitude": 47.5581, "longitude": 7.5903, "location": "Basel", "year": 2016, "speech_count": 1 }, "geometry": { "type": "Point", "coordinates": [ 7.5903, 47.5581 ] } },
{ "type": "Feature", "properties": { "latitude": 48.1351, "longitude": 11.582, "location": "Munich", "year": 2016, "speech_count": 2 }, "geometry": { "type": "Point", "coordinates": [ 11.582, 48.1351 ] } },
{ "type": "Feature", "properties": { "latitude": 48.1371, "longitude": 11.5754, "location": "Munich", "year": 2016, "speech_count": 3 }, "geometry": { "type": "Point", "coordinates": [ 11.5754, 48.1371 ] } },
{ "type": "Feature", "properties": { "latitude": 48.1371, "longitude": 11.5761, "location": "Munich", "year": 2016, "speech_count": 1 }, "geometry": { "type": "Point", "coordinates": [ 11.5761, 48.1371 ] } },
{ "type": "Feature", "properties": { "latitude": 48.1374, "longitude": 11.5755, "location": "Munich", "year": 2016, "speech_count": 3 }, "geometry": { "type": "Point", "coordinates": [ 11.5755, 48.1374 ] } },
{ "type": "Feature", "properties": { "latitude": 48.2082, "longitude": 16.3738, "location": "Vienna", "year": 2016, "speech_count": 4 }, "geometry": { "type": "Point", "coordinates": [ 16.3738, 48.2082 ] } },
{ "type": "Feature", "properties": { "latitude": 48.5834, "longitude": 7.7459, "location": "Strasbourg", "year": 2016, "speech_count": 1 }, "geometry": { "type": "Point", "coordinates": [ 7.7459, 48.5834 ] } },
{ "type": "Feature", "properties": { "latitude": 48.5834, "longitude": 7.7469, "location": "Strasbourg", "year": 2016, "speech_count": 2 }, "geometry": { "type": "Point", "coordinates": [ 7.7469, 48.5834 ] } },
{ "type": "Feature", "properties": { "latitude": 48.7497, "longitude": -122.4782, "location": "Bellingham", "year": 2016, "speech_count": 1 }, "geometry": { "type": "Point", "coordinates": [ -122.4782, 48.7497 ] } },
{ "type": "Feature", "properties": { "latitude": 48.7826, "longitude": 9.18, "location": "Stuttgart", "year": 2016, "speech_count": 1 }, "geometry": { "type": "Point", "coordinates": [ 9.18, 48.7826 ] } },
{ "type": "Feature", "properties": { "latitude": 48.8566, "longitude": 2.3515, "location": "Paris", "year": 2016, "speech_count": 2 }, "geometry": { "type": "Point", "coordinates": [ 2.3515, 48.8566 ] } },
{ "type": "Feature", "properties": { "latitude": 48.8566, "longitude": 2.3522, "location": "Paris", "year": 2016, "speech_count": 12 }, "geometry": { "type": "Point", "coordinates": [ 2.3522, 48.8566 ] } },
{ "type": "Feature", "properties": { "latitude": 48.8582, "longitude": 2.2945, "location": "Paris", "year": 2016, "speech_count": 12 }, "geometry": { "type": "Point", "coordinates": [ 2.2945, 48.8582 ] } },
{ "type": "Feature", "properties": { "latitude": 48.8584, "longitude": 2.2945, "location": "Paris", "year": 2016, "speech_count": 3 }, "geometry": { "type": "Point", "coordinates": [ 2.2945, 48.8584 ] } },
{ "type": "Feature", "properties": { "latitude": 49.0105, "longitude": 8.4047, "location": "Karlsruhe", "year": 2016, "speech_count": 1 }, "geometry": { "type": "Point", "coordinates": [ 8.4047, 49.0105 ] } },
{ "type": "Feature", "properties": { "latitude": 49.0133, "longitude": 8.4028, "location": "Karlsruhe", "year": 2016, "speech_count": 1 }, "geometry": { "type": "Point", "coordinates": [ 8.4028, 49.0133 ] } },
{ "type": "Feature", "properties": { "latitude": 49.0153, "longitude": 12.0934, "location": "Regensburg", "year": 2016, "speech_count": 1 }, "geometry": { "type": "Point", "coordinates": [ 12.0934, 49.0153 ] } },
{ "type": "Feature", "properties": { "latitude": 49.2827, "longitude": -123.1207, "location": "Vancouver", "year": 2016, "speech_count": 2 }, "geometry": { "type": "Point", "coordinates": [ -123.1207, 49.2827 ] } },
{ "type": "Feature", "properties": { "latitude": 49.6116, "longitude": 6.1319, "location": "Luxembourg", "year": 2016, "speech_count": 2 }, "geometry": { "type": "Point", "coordinates": [ 6.1319, 49.6116 ] } },
{ "type": "Feature", "properties": { "latitude": 49.9825, "longitude": 8.1372, "location": "Eltville", "year": 2016, "speech_count": 1 }, "geometry": { "type": "Point", "coordinates": [ 8.1372, 49.9825 ] } },
{ "type": "Feature", "properties": { "latitude": 49.9833, "longitude": 8.1667, "location": "Eltville am Rhein", "year": 2016, "speech_count": 1 }, "geometry": { "type": "Point", "coordinates": [ 8.1667, 49.9833 ] } },
{ "type": "Feature", "properties": { "latitude": 49.9857, "longitude": 8.1429, "location": "Eltville", "year": 2016, "speech_count": 1 }, "geometry": { "type": "Point", "coordinates": [ 8.1429, 49.9857 ] } },
{ "type": "Feature", "properties": { "latitude": 50.0256, "longitude": 8.1478, "location": "Eltville", "year": 2016, "speech_count": 1 }, "geometry": { "type": "Point", "coordinates": [ 8.1478, 50.0256 ] } },
{ "type": "Feature", "properties": { "latitude": 50.0755, "longitude": 14.4378, "location": "Prague", "year": 2016, "speech_count": 1 }, "geometry": { "type": "Point", "coordinates": [ 14.4378, 50.0755 ] } },
{ "type": "Feature", "properties": { "latitude": 50.0878, "longitude": 14.4205, "location": "Prague", "year": 2016, "speech_count": 1 }, "geometry": { "type": "Point", "coordinates": [ 14.4205, 50.0878 ] } },
{ "type": "Feature", "properties": { "latitude": 50.088, "longitude": 14.4208, "location": "Prague", "year": 2016, "speech_count": 3 }, "geometry": { "type": "Point", "coordinates": [ 14.4208, 50.088 ] } },
{ "type": "Feature", "properties": { "latitude": 50.1109, "longitude": 8.6821, "location": "Frankfurt", "year": 2016, "speech_count": 62 }, "geometry": { "type": "Point", "coordinates": [ 8.6821, 50.1109 ] } },
{ "type": "Feature", "properties": { "latitude": 50.1267, "longitude": 8.5389, "location": "Eschborn", "year": 2016, "speech_count": 1 }, "geometry": { "type": "Point", "coordinates": [ 8.5389, 50.1267 ] } },
{ "type": "Feature", "properties": { "latitude": 50.4501, "longitude": 30.5234, "location": "Kyiv", "year": 2016, "speech_count": 1 }, "geometry": { "type": "Point", "coordinates": [ 30.5234, 50.4501 ] } },
{ "type": "Feature", "properties": { "latitude": 50.6714, "longitude": 7.8767, "location": "Hachenburg", "year": 2016, "speech_count": 1 }, "geometry": { "type": "Point", "coordinates": [ 7.8767, 50.6714 ] } },
{ "type": "Feature", "properties": { "latitude": 50.7352, "longitude": 7.0982, "location": "Bonn", "year": 2016, "speech_count": 1 }, "geometry": { "type": "Point", "coordinates": [ 7.0982, 50.7352 ] } },
{ "type": "Feature", "properties": { "latitude": 50.8465, "longitude": 4.3517, "location": "Brussels", "year": 2016, "speech_count": 18 }, "geometry": { "type": "Point", "coordinates": [ 4.3517, 50.8465 ] } },
{ "type": "Feature", "properties": { "latitude": 51.0486, "longitude": -114.0708, "location": "Calgary", "year": 2016, "speech_count": 1 }, "geometry": { "type": "Point", "coordinates": [ -114.0708, 51.0486 ] } },
{ "type": "Feature", "properties": { "latitude": 51.1605, "longitude": 71.4704, "location": "Astana", "year": 2016, "speech_count": 1 }, "geometry": { "type": "Point", "coordinates": [ 71.4704, 51.1605 ] } },
{ "type": "Feature", "properties": { "latitude": 51.1789, "longitude": -2.8363, "location": "Somerset", "year": 2016, "speech_count": 1 }, "geometry": { "type": "Point", "coordinates": [ -2.8363, 51.1789 ] } },
{ "type": "Feature", "properties": { "latitude": 51.2254, "longitude": 6.7764, "location": "Düsseldorf", "year": 2016, "speech_count": 1 }, "geometry": { "type": "Point", "coordinates": [ 6.7764, 51.2254 ] } },
{ "type": "Feature", "properties": { "latitude": 51.3812, "longitude": 1.3914, "location": "Margate", "year": 2016, "speech_count": 1 }, "geometry": { "type": "Point", "coordinates": [ 1.3914, 51.3812 ] } },
{ "type": "Feature", "properties": { "latitude": 51.4333, "longitude": 6.7667, "location": "Duisburg", "year": 2016, "speech_count": 1 }, "geometry": { "type": "Point", "coordinates": [ 6.7667, 51.4333 ] } },
{ "type": "Feature", "properties": { "latitude": 51.5074, "longitude": -0.1278, "location": "London", "year": 2016, "speech_count": 41 }, "geometry": { "type": "Point", "coordinates": [ -0.1278, 51.5074 ] } },
{ "type": "Feature", "properties": { "latitude": 51.5085, "longitude": -0.1257, "location": "London", "year": 2016, "speech_count": 1 }, "geometry": { "type": "Point", "coordinates": [ -0.1257, 51.5085 ] } },
{ "type": "Feature", "properties": { "latitude": 51.6161, "longitude": -3.7925, "location": "Port Talbot", "year": 2016, "speech_count": 1 }, "geometry": { "type": "Point", "coordinates": [ -3.7925, 51.6161 ] } },
{ "type": "Feature", "properties": { "latitude": 51.7522, "longitude": -1.2559, "location": "Oxfordshire", "year": 2016, "speech_count": 1 }, "geometry": { "type": "Point", "coordinates": [ -1.2559, 51.7522 ] } },
{ "type": "Feature", "properties": { "latitude": 51.9628, "longitude": 7.6294, "location": "Münster", "year": 2016, "speech_count": 1 }, "geometry": { "type": "Point", "coordinates": [ 7.6294, 51.9628 ] } },
{ "type": "Feature", "properties": { "latitude": 52.0908, "longitude": 5.1219, "location": "Utrecht", "year": 2016, "speech_count": 1 }, "geometry": { "type": "Point", "coordinates": [ 5.1219, 52.0908 ] } },
{ "type": "Feature", "properties": { "latitude": 52.2083, "longitude": 4.4072, "location": "Katwijk", "year": 2016, "speech_count": 1 }, "geometry": { "type": "Point", "coordinates": [ 4.4072, 52.2083 ] } },
{ "type": "Feature", "properties": { "latitude": 52.3676, "longitude": 4.8992, "location": "Amsterdam", "year": 2016, "speech_count": 1 }, "geometry": { "type": "Point", "coordinates": [ 4.8992, 52.3676 ] } },
{ "type": "Feature", "properties": { "latitude": 52.3702, "longitude": 4.8952, "location": "Amsterdam", "year": 2016, "speech_count": 4 }, "geometry": { "type": "Point", "coordinates": [ 4.8952, 52.3702 ] } },
{ "type": "Feature", "properties": { "latitude": 52.5167, "longitude": 13.3833, "location": "Berlin", "year": 2016, "speech_count": 1 }, "geometry": { "type": "Point", "coordinates": [ 13.3833, 52.5167 ] } },
{ "type": "Feature", "properties": { "latitude": 52.52, "longitude": 13.405, "location": "Berlin", "year": 2016, "speech_count": 7 }, "geometry": { "type": "Point", "coordinates": [ 13.405, 52.52 ] } },
{ "type": "Feature", "properties": { "latitude": 53.2492, "longitude": 10.3414, "location": "Lündeburg", "year": 2016, "speech_count": 1 }, "geometry": { "type": "Point", "coordinates": [ 10.3414, 53.2492 ] } },
{ "type": "Feature", "properties": { "latitude": 53.3441, "longitude": -6.2675, "location": "Dublin", "year": 2016, "speech_count": 1 }, "geometry": { "type": "Point", "coordinates": [ -6.2675, 53.3441 ] } },
{ "type": "Feature", "properties": { "latitude": 53.3498, "longitude": -6.2603, "location": "Dublin", "year": 2016, "speech_count": 15 }, "geometry": { "type": "Point", "coordinates": [ -6.2603, 53.3498 ] } },
{ "type": "Feature", "properties": { "latitude": 53.4084, "longitude": -2.9916, "location": "Liverpool", "year": 2016, "speech_count": 1 }, "geometry": { "type": "Point", "coordinates": [ -2.9916, 53.4084 ] } },
{ "type": "Feature", "properties": { "latitude": 53.4808, "longitude": -2.2426, "location": "Manchester", "year": 2016, "speech_count": 1 }, "geometry": { "type": "Point", "coordinates": [ -2.2426, 53.4808 ] } },
{ "type": "Feature", "properties": { "latitude": 53.5444, "longitude": -113.4909, "location": "Edmonton", "year": 2016, "speech_count": 1 }, "geometry": { "type": "Point", "coordinates": [ -113.4909, 53.5444 ] } },
{ "type": "Feature", "properties": { "latitude": 53.5503, "longitude": 9.9937, "location": "Hamburg", "year": 2016, "speech_count": 1 }, "geometry": { "type": "Point", "coordinates": [ 9.9937, 53.5503 ] } },
{ "type": "Feature", "properties": { "latitude": 53.551, "longitude": 9.9937, "location": "Hamburg", "year": 2016, "speech_count": 1 }, "geometry": { "type": "Point", "coordinates": [ 9.9937, 53.551 ] } },
{ "type": "Feature", "properties": { "latitude": 53.9583, "longitude": -1.0803, "location": "York", "year": 2016, "speech_count": 1 }, "geometry": { "type": "Point", "coordinates": [ -1.0803, 53.9583 ] } },
{ "type": "Feature", "properties": { "latitude": 54.442, "longitude": 18.5617, "location": "Sopot, Poland", "year": 2016, "speech_count": 1 }, "geometry": { "type": "Point", "coordinates": [ 18.5617, 54.442 ] } },
{ "type": "Feature", "properties": { "latitude": 54.6172, "longitude": -1.0797, "location": "Redcar", "year": 2016, "speech_count": 1 }, "geometry": { "type": "Point", "coordinates": [ -1.0797, 54.6172 ] } },
{ "type": "Feature", "properties": { "latitude": 55.4903, "longitude": 9.4671, "location": "Kolding", "year": 2016, "speech_count": 1 }, "geometry": { "type": "Point", "coordinates": [ 9.4671, 55.4903 ] } },
{ "type": "Feature", "properties": { "latitude": 55.6761, "longitude": 12.5683, "location": "Copenhagen", "year": 2016, "speech_count": 2 }, "geometry": { "type": "Point", "coordinates": [ 12.5683, 55.6761 ] } },
{ "type": "Feature", "properties": { "latitude": 55.6763, "longitude": 12.5683, "location": "Copenhagen", "year": 2016, "speech_count": 1 }, "geometry": { "type": "Point", "coordinates": [ 12.5683, 55.6763 ] } },
{ "type": "Feature", "properties": { "latitude": 55.7558, "longitude": 37.6173, "location": "Moscow", "year": 2016, "speech_count": 3 }, "geometry": { "type": "Point", "coordinates": [ 37.6173, 55.7558 ] } },
{ "type": "Feature", "properties": { "latitude": 55.9533, "longitude": -3.1883, "location": "Edinburgh", "year": 2016, "speech_count": 1 }, "geometry": { "type": "Point", "coordinates": [ -3.1883, 55.9533 ] } },
{ "type": "Feature", "properties": { "latitude": 57.7089, "longitude": 11.9746, "location": "Göteborg", "year": 2016, "speech_count": 1 }, "geometry": { "type": "Point", "coordinates": [ 11.9746, 57.7089 ] } },
{ "type": "Feature", "properties": { "latitude": 59.3293, "longitude": 18.0686, "location": "Stockholm", "year": 2016, "speech_count": 9 }, "geometry": { "type": "Point", "coordinates": [ 18.0686, 59.3293 ] } },
{ "type": "Feature", "properties": { "latitude": 59.3328, "longitude": 18.0645, "location": "Stockholm", "year": 2016, "speech_count": 1 }, "geometry": { "type": "Point", "coordinates": [ 18.0645, 59.3328 ] } },
{ "type": "Feature", "properties": { "latitude": 59.9114, "longitude": 10.7579, "location": "Oslo", "year": 2016, "speech_count": 1 }, "geometry": { "type": "Point", "coordinates": [ 10.7579, 59.9114 ] } },
{ "type": "Feature", "properties": { "latitude": 59.9138, "longitude": 10.7522, "location": "Oslo", "year": 2016, "speech_count": 4 }, "geometry": { "type": "Point", "coordinates": [ 10.7522, 59.9138 ] } },
{ "type": "Feature", "properties": { "latitude": 59.9139, "longitude": 10.7522, "location": "Oslo", "year": 2016, "speech_count": 3 }, "geometry": { "type": "Point", "coordinates": [ 10.7522, 59.9139 ] } },
{ "type": "Feature", "properties": { "latitude": 60.1699, "longitude": 24.9353, "location": "Helsinki", "year": 2016, "speech_count": 1 }, "geometry": { "type": "Point", "coordinates": [ 24.9353, 60.1699 ] } },
{ "type": "Feature", "properties": { "latitude": 60.1699, "longitude": 24.9384, "location": "Helsinki", "year": 2016, "speech_count": 5 }, "geometry": { "type": "Point", "coordinates": [ 24.9384, 60.1699 ] } },
{ "type": "Feature", "properties": { "latitude": 60.7202, "longitude": -135.0594, "location": "Whitehorse, Yukon", "year": 2016, "speech_count": 1 }, "geometry": { "type": "Point", "coordinates": [ -135.0594, 60.7202 ] } },
{ "type": "Feature", "properties": { "latitude": 63.4305, "longitude": 10.3951, "location": "Trondheim", "year": 2016, "speech_count": 1 }, "geometry": { "type": "Point", "coordinates": [ 10.3951, 63.4305 ] } },
{ "type": "Feature", "properties": { "latitude": 64.1265, "longitude": -21.8174, "location": "Reykjavik", "year": 2016, "speech_count": 4 }, "geometry": { "type": "Point", "coordinates": [ -21.8174, 64.1265 ] } }
]
}
