{
"type": "FeatureCollection",
"name": "speeches_2019",
"crs": { "type": "name", "properties": { "name": "urn:ogc:def:crs:OGC:1.3:CRS84" } },
"features": [
{ "type": "Feature", "properties": { "latitude": -45.8787, "longitude": 170.5029, "location": "Dunedin", "year": 2019, "speech_count": 1 }, "geometry": { "type": "Point", "coordinates": [ 170.5029, -45.8787 ] } },
{ "type": "Feature", "properties": { "latitude": -41.2865, "longitude": 174.7762, "location": "Wellington", "year": 2019, "speech_count": 2 }, "geometry": { "type": "Point", "coordinates": [ 174.7762, -41.2865 ] } },
{ "type": "Feature", "properties": { "latitude": -41.2667, "longitude": 173.2909, "location": "Nelson", "year": 2019, "speech_count": 1 }, "geometry": { "type": "Point", "coordinates": [ 173.2909, -41.2667 ] } },
{ "type": "Feature", "properties": { "latitude": -38.1471, "longitude": 144.3602, "location": "Geelong", "year": 2019, "speech_count": 1 }, "geometry": { "type": "Point", "coordinates": [ 144.3602, -38.1471 ] } },
{ "type": "Feature", "properties": { "latitude": -37.8142, "longitude": 144.9631, "location": "Melbourne", "year": 2019, "speech_count": 1 }, "geometry": { "type": "Point", "coordinates": [ 144.9631, -37.8142 ] } },
{ "type": "Feature", "properties": { "latitude": -37.814, "longitude": 144.9633, "location": "Melbourne", "year": 2019, "speech_count": 2 }, "geometry": { "type": "Point", "coordinates": [ 144.9633, -37.814 ] } },
{ "type": "Feature", "properties": { "latitude": -37.8136, "longitude": 144.9631, "location": "Melbourne", "year": 2019, "speech_count": 1 }, "geometry": { "type": "Point", "coordinates": [ 144.9631, -37.8136 ] } },
{ "type": "Feature", "properties": { "latitude": -37.7956, "longitude": 175.2814, "location": "Hamilton", "year": 2019, "speech_count": 1 }, "geometry": { "type": "Point", "coordinates": [ 175.2814, -37.7956 ] } },
{ "type": "Feature", "properties": { "latitude": -36.8485, "longitude": 174.7633, "location": "Auckland", "year": 2019, "speech_count": 4 }, "geometry": { "type": "Point", "coordinates": [ 174.7633, -36.8485 ] } },
{ "type": "Feature", "properties": { "latitude": -35.2834, "longitude": 149.1281, "location": "Canberra", "year": 2019, "speech_count": 1 }, "geometry": { "type": "Point", "coordinates": [ 149.1281, -35.2834 ] } },
{ "type": "Feature", "properties": { "latitude": -35.2809, "longitude": 149.1287, "location": "Canberra", "year": 2019, "speech_count": 1 }, "geometry": { "type": "Point", "coordinates": [ 149.1287, -35.2809 ] } },
{ "type": "Feature", "properties": { "latitude": -35.2809, "longitude": 149.13, "location": "Canberra", "year": 2019, "speech_count": 2 }, "geometry": { "type": "Point", "coordinates": [ 149.13, -35.2809 ] } },
{ "type": "Feature", "properties": { "latitude": -34.9287, "longitude": 138.6007, "location": "Adelaide", "year": 2019, "speech_count": 2 }, "geometry": { "type": "Point", "coordinates": [ 138.6007, -34.9287 ] } },
{ "type": "Feature", "properties": { "latitude": -34.9285, "longitude": 138.6007, "location": "Adelaide", "year": 2019, "speech_count": 2 }, "geometry": { "type": "Point", "coordinates": [ 138.6007, -34.9285 ] } },
{ "type": "Feature", "properties": { "latitude": -34.6037, "longitude": -58.3692, "location": "Buenos Aires", "year": 2019, "speech_count": 1 }, "geometry": { "type": "Point", "coordinates": [ -58.3692, -34.6037 ] } },
{ "type": "Feature", "properties": { "latitude": -33.9333, "longitude": 18.8667, "location": "Stellenbosch", "year": 2019, "speech_count": 1 }, "geometry": { "type": "Point", "coordinates": [ 18.8667, -33.9333 ] } },
{ "type": "Feature", "properties": { "latitude": -33.9258, "longitude": 18.4232, "location": "Cape Town", "year": 2019, "speech_count": 1 }, "geometry": { "type": "Point", "coordinates": [ 18.4232, -33.9258 ] } },
{ "type": "Feature", "properties": { "latitude": -33.9249, "longitude": 18.4241, "location": "Cape Town", "year": 2019, "speech_count": 2 }, "geometry": { "type": "Point", "coordinates": [ 18.4241, -33.9249 ] } },
{ "type": "Feature", "properties": { "latitude": -33.9249, "longitude": 18.8643, "location": "Stellenbosch", "year": 2019, "speech_count": 1 }, "geometry": { "type": "Point", "coordinates": [ 18.8643, -33.9249 ] } },
{ "type": "Feature", "properties": { "latitude": -33.8688, "longitude": 151.2093, "location": "Sydney", "year": 2019, "speech_count": 16 }, "geometry": { "type": "Point", "coordinates": [ 151.2093, -33.8688 ] } },
{ "type": "Feature", "properties": { "latitude": -33.8679, "longitude": 151.2073, "location": "Sydney", "year": 2019, "speech_count": 2 }, "geometry": { "type": "Point", "coordinates": [ 151.2073, -33.8679 ] } },
{ "type": "Feature", "properties": { "latitude": -33.8675, "longitude": 151.207, "location": "Sydney", "year": 2019, "speech_count": 1 }, "geometry": { "type": "Point", "coordinates": [ 151.207, -33.8675 ] } },
{ "type": "Feature", "properties": { "latitude": -33.4489, "longitude": -70.6693, "location": "Santiago", "year": 2019, "speech_count": 5 }, "geometry": { "type": "Point", "coordinates": [ -70.6693, -33.4489 ] } },
{ "type": "Feature", "properties": { "latitude": -31.9535, "longitude": 115.8571, "location": "Perth", "year": 2019, "speech_count": 1 }, "geometry": { "type": "Point", "coordinates": [ 115.8571, -31.9535 ] } },
{ "type": "Feature", "properties": { "latitude": -30.5197, "longitude": 151.6611, "location": "Armidale", "year": 2019, "speech_count": 1 }, "geometry": { "type": "Point", "coordinates": [ 151.6611, -30.5197 ] } },
{ "type": "Feature", "properties": { "latitude": -27.5667, "longitude": 151.95, "location": "Toowoomba", "year": 2019, "speech_count": 1 }, "geometry": { "type": "Point", "coordinates": [ 151.95, -27.5667 ] } },
{ "type": "Feature", "properties": { "latitude": -27.4698, "longitude": 153.0251, "location": "Brisbane", "year": 2019, "speech_count": 1 }, "geometry": { "type": "Point", "coordinates": [ 153.0251, -27.4698 ] } },
{ "type": "Feature", "properties": { "latitude": -26.2041, "longitude": 28.0473, "location": "Johannesburg", "year": 2019, "speech_count": 4 }, "geometry": { "type": "Point", "coordinates": [ 28.0473, -26.2041 ] } },
{ "type": "Feature", "properties": { "latitude": -25.9686, "longitude": 32.5803, "location": "Maputo", "year": 2019, "speech_count": 1 }, "geometry": { "type": "Point", "coordinates": [ 32.5803, -25.9686 ] } },
{ "type": "Feature", "properties": { "latitude": -25.7461, "longitude": 28.1881, "location": "Pretoria", "year": 2019, "speech_count": 2 }, "geometry": { "type": "Point", "coordinates": [ 28.1881, -25.7461 ] } },
{ "type": "Feature", "properties": { "latitude": -25.7461, "longitude": 28.1882, "location": "Pretoria", "year": 2019, "speech_count": 1 }, "geometry": { "type": "Point", "coordinates": [ 28.1882, -25.7461 ] } },
{ "type": "Feature", "properties": { "latitude": -25.7461, "longitude": 28.1889, "location": "Pretoria", "year": 2019, "speech_count": 1 }, "geometry": { "type": "Point", "coordinates": [ 28.1889, -25.7461 ] } },
{ "type": "Feature", "properties": { "latitude": -25.7461, "longitude": 28.2293, "location": "Pretoria", "year": 2019, "speech_count": 1 }, "geometry": { "type": "Point", "coordinates": [ 28.2293, -25.7461 ] } },
{ "type": "Feature", "properties": { "latitude": -24.6581, "longitude": 25.9122, "location": "Gaborone", "year": 2019, "speech_count": 1 }, "geometry": { "type": "Point", "coordinates": [ 25.9122, -24.6581 ] } },
{ "type": "Feature", "properties": { "latitude": -24.6573, "longitude": 25.9082, "location": "Gaborone", "year": 2019, "speech_count": 1 }, "geometry": { "type": "Point", "coordinates": [ 25.9082, -24.6573 ] } },
{ "type": "Feature", "properties": { "latitude": -24.6463, "longitude": 25.912, "location": "Gaborone", "year": 2019, "speech_count": 2 }, "geometry": { "type": "Point", "coordinates": [ 25.912, -24.6463 ] } },
{ "type": "Feature", "properties": { "latitude": -20.1691, "longitude": 57.3551, "location": "Flic en Flac", "year": 2019, "speech_count": 1 }, "geometry": { "type": "Point", "coordinates": [ 57.3551, -20.1691 ] } },
{ "type": "Feature", "properties": { "latitude": -20.1639, "longitude": 57.5012, "location": "Port Louis", "year": 2019, "speech_count": 1 }, "geometry": { "type": "Point", "coordinates": [ 57.5012, -20.1639 ] } },
{ "type": "Feature", "properties": { "latitude": -20.1609, "longitude": 57.4966, "location": "Port Louis", "year": 2019, "speech_count": 1 }, "geometry": { "type": "Point", "coordinates": [ 57.4966, -20.1609 ] } },
{ "type": "Feature", "properties": { "latitude": -20.1606, "longitude": 57.498, "location": "Port Louis", "year": 2019, "speech_count": 1 }, "geometry": { "type": "Point", "coordinates": [ 57.498, -20.1606 ] } },
{ "type": "Feature", "properties": { "latitude": -20.1605, "longitude": 57.4952, "location": "Port Louis", "year": 2019, "speech_count": 1 }, "geometry": { "type": "Point", "coordinates": [ 57.4952, -20.1605 ] } },
{ "type": "Feature", "properties": { "latitude": -18.1416, "longitude": 178.4419, "location": "Suva", "year": 2019, "speech_count": 1 }, "geometry": { "type": "Point", "coordinates": [ 178.4419, -18.1416 ] } },
{ "type": "Feature", "properties": { "latitude": -15.4167, "longitude": 28.2833, "location": "Lusaka", "year": 2019, "speech_count": 4 }, "geometry": { "type": "Point", "coordinates": [ 28.2833, -15.4167 ] } },
{ "type": "Feature", "properties": { "latitude": -12.4611, "longitude": 130.8418, "location": "Darwin", "year": 2019, "speech_count": 1 }, "geometry": { "type": "Point", "coordinates": [ 130.8418, -12.4611 ] } },
{ "type": "Feature", "properties": { "latitude": -9.4395, "longitude": 159.9273, "location": "Honiara", "year": 2019, "speech_count": 1 }, "geometry": { "type": "Point", "coordinates": [ 159.9273, -9.4395 ] } },
{ "type": "Feature", "properties": { "latitude": -9.4333, "longitude": 159.95, "location": "Honiara", "year": 2019, "speech_count": 1 }, "geometry": { "type": "Point", "coordinates": [ 159.95, -9.4333 ] } },
{ "type": "Feature", "properties": { "latitude": -6.1751, "longitude": 106.865, "location": "Jakarta", "year": 2019, "speech_count": 1 }, "geometry": { "type": "Point", "coordinates": [ 106.865, -6.1751 ] } },
{ "type": "Feature", "properties": { "latitude": -4.6796, "longitude": 55.4919, "location": "Mahe", "year": 2019, "speech_count": 3 }, "geometry": { "type": "Point", "coordinates": [ 55.4919, -4.6796 ] } },
{ "type": "Feature", "properties": { "latitude": -4.6744, "longitude": 55.4511, "location": "Mahe", "year": 2019, "speech_count": 1 }, "geometry": { "type": "Point", "coordinates": [ 55.4511, -4.6744 ] } },
{ "type": "Feature", "properties": { "latitude": -1.9403, "longitude": 30.0571, "location": "Kigali", "year": 2019, "speech_count": 1 }, "geometry": { "type": "Point", "coordinates": [ 30.0571, -1.9403 ] } },
{ "type": "Feature", "properties": { "latitude": -1.5018, "longitude": 30.1103, "location": "Kigo", "year": 2019, "speech_count": 1 }, "geometry": { "type": "Point", "coordinates": [ 30.1103, -1.5018 ] } },
{ "type": "Feature", "properties": { "latitude": -1.2921, "longitude": 36.8219, "location": "Nairobi", "year": 2019, "speech_count": 3 }, "geometry": { "type": "Point", "coordinates": [ 36.8219, -1.2921 ] } },
{ "type": "Feature", "properties": { "latitude": -1.2833, "longitude": 36.8167, "location": "Nairobi", "year": 2019, "speech_count": 1 }, "geometry": { "type": "Point", "coordinates": [ 36.8167, -1.2833 ] } },
{ "type": "Feature", "properties": { "latitude": -1.0638, "longitude": 35.8517, "location": "Narok County", "year": 2019, "speech_count": 1 }, "geometry": { "type": "Point", "coordinates": [ 35.8517, -1.0638 ] } },
{ "type": "Feature", "properties": { "latitude": 0.3156, "longitude": 32.5679, "location": "Kampala", "year": 2019, "speech_count": 1 }, "geometry": { "type": "Point", "coordinates": [ 32.5679, 0.3156 ] } },
{ "type": "Feature", "properties": { "latitude": 0.3156, "longitude": 32.5699, "location": "Kampala", "year": 2019, "speech_count": 1 }, "geometry": { "type": "Point", "coordinates": [ 32.5699, 0.3156 ] } },
{ "type": "Feature", "properties": { "latitude": 0.3157, "longitude": 32.5625, "location": "Kampala", "year": 2019, "speech_count": 1 }, "geometry": { "type": "Point", "coordinates": [ 32.5625, 0.3157 ] } },
{ "type": "Feature", "properties": { "latitude": 0.3157, "longitude": 32.5637, "location": "Kampala", "year": 2019, "speech_count": 1 }, "geometry": { "type": "Point", "coordinates": [ 32.5637, 0.3157 ] } },
{ "type": "Feature", "properties": { "latitude": 0.4306, "longitude": 33.1919, "location": "Jinja", "year": 2019, "speech_count": 1 }, "geometry": { "type": "Point", "coordinates": [ 33.1919, 0.4306 ] } },
{ "type": "Feature", "properties": { "latitude": 1.2833, "longitude": 103.8331, "location": "Singapore", "year": 2019, "speech_count": 1 }, "geometry": { "type": "Point", "coordinates": [ 103.8331, 1.2833 ] } },
{ "type": "Feature", "properties": { "latitude": 1.2894, "longitude": 103.85, "location": "Singapore", "year": 2019, "speech_count": 6 }, "geometry": { "type": "Point", "coordinates": [ 103.85, 1.2894 ] } },
{ "type": "Feature", "properties": { "latitude": 1.2894, "longitude": 103.85, "location": "Singarpre", "year": 2019, "speech_count": 1 }, "geometry": { "type": "Point", "coordinates": [ 103.85, 1.2894 ] } },
{ "type": "Feature", "properties": { "latitude": 1.2894, "longitude": 103.8505, "location": "Singapore", "year": 2019, "speech_count": 1 }, "geometry": { "type": "Point", "coordinates": [ 103.8505, 1.2894 ] } },
{ "type": "Feature", "properties": { "latitude": 1.3521, "longitude": 103.8198, "location": "Singapore", "year": 2019, "speech_count": 9 }, "geometry": { "type": "Point", "coordinates": [ 103.8198, 1.3521 ] } },
{ "type": "Feature", "properties": { "latitude": 3.139, "longitude": 101.6869, "location": "Kuala Lumpur", "year": 2019, "speech_count": 9 }, "geometry": { "type": "Point", "coordinates": [ 101.6869, 3.139 ] } },
{ "type": "Feature", "properties": { "latitude": 3.1408, "longitude": 101.6865, "location": "Kuala Lumpur", "year": 2019, "speech_count": 2 }, "geometry": { "type": "Point", "coordinates": [ 101.6865, 3.1408 ] } },
{ "type": "Feature", "properties": { "latitude": 3.1408, "longitude": 101.6868, "location": "Kuala Lumpur", "year": 2019, "speech_count": 2 }, "geometry": { "type": "Point", "coordinates": [ 101.6868, 3.1408 ] } },
{ "type": "Feature", "properties": { "latitude": 3.1408, "longitude": 101.6869, "location": "Kuala Lumpur", "year": 2019, "speech_count": 3 }, "geometry": { "type": "Point", "coordinates": [ 101.6869, 3.1408 ] } },
{ "type": "Feature", "properties": { "latitude": 3.1408, "longitude": 101.6931, "location": "Kuala Lumpur", "year": 2019, "speech_count": 5 }, "geometry": { "type": "Point", "coordinates": [ 101.6931, 3.1408 ] } },
{ "type": "Feature", "properties": { "latitude": 4.1752, "longitude": 73.5089, "location": "Malé", "year": 2019, "speech_count": 1 }, "geometry": { "type": "Point", "coordinates": [ 73.5089, 4.1752 ] } },
{ "type": "Feature", "properties": { "latitude": 5.3194, "longitude": 100.2811, "location": "Bayan Lepas", "year": 2019, "speech_count": 1 }, "geometry": { "type": "Point", "coordinates": [ 100.2811, 5.3194 ] } },
{ "type": "Feature", "properties": { "latitude": 5.55, "longitude": -0.2, "location": "Accra", "year": 2019, "speech_count": 1 }, "geometry": { "type": "Point", "coordinates": [ -0.2, 5.55 ] } },
{ "type": "Feature", "properties": { "latitude": 5.5568, "longitude": -0.1933, "location": "Accra", "year": 2019, "speech_count": 1 }, "geometry": { "type": "Point", "coordinates": [ -0.1933, 5.5568 ] } },
{ "type": "Feature", "properties": { "latitude": 5.5586, "longitude": -0.2039, "location": "Accra", "year": 2019, "speech_count": 1 }, "geometry": { "type": "Point", "coordinates": [ -0.2039, 5.5586 ] } },
{ "type": "Feature", "properties": { "latitude": 5.5586, "longitude": -0.2013, "location": "Accra", "year": 2019, "speech_count": 6 }, "geometry": { "type": "Point", "coordinates": [ -0.2013, 5.5586 ] } },
{ "type": "Feature", "properties": { "latitude": 5.5586, "longitude": -0.1978, "location": "Accra", "year": 2019, "speech_count": 2 }, "geometry": { "type": "Point", "coordinates": [ -0.1978, 5.5586 ] } },
{ "type": "Feature", "properties": { "latitude": 5.5586, "longitude": -0.1939, "location": "Accra", "year": 2019, "speech_count": 1 }, "geometry": { "type": "Point", "coordinates": [ -0.1939, 5.5586 ] } },
{ "type": "Feature", "properties": { "latitude": 6.9319, "longitude": 79.8478, "location": "Colombo", "year": 2019, "speech_count": 2 }, "geometry": { "type": "Point", "coordinates": [ 79.8478, 6.9319 ] } },
{ "type": "Feature", "properties": { "latitude": 10.3964, "longitude": -75.5194, "location": "Cartagena", "year": 2019, "speech_count": 1 }, "geometry": { "type": "Point", "coordinates": [ -75.5194, 10.3964 ] } },
{ "type": "Feature", "properties": { "latitude": 12.1096, "longitude": -68.9316, "location": "Willemstad", "year": 2019, "speech_count": 1 }, "geometry": { "type": "Point", "coordinates": [ -68.9316, 12.1096 ] } },
{ "type": "Feature", "properties": { "latitude": 13.0931, "longitude": -59.6139, "location": "Bridgetown", "year": 2019, "speech_count": 1 }, "geometry": { "type": "Point", "coordinates": [ -59.6139, 13.0931 ] } },
{ "type": "Feature", "properties": { "latitude": 13.0931, "longitude": -59.6139, "location": "Bridgtown", "year": 2019, "speech_count": 1 }, "geometry": { "type": "Point", "coordinates": [ -59.6139, 13.0931 ] } },
{ "type": "Feature", "properties": { "latitude": 13.0935, "longitude": -59.6139, "location": "Bridgetown", "year": 2019, "speech_count": 1 }, "geometry": { "type": "Point", "coordinates": [ -59.6139, 13.0935 ] } },
{ "type": "Feature", "properties": { "latitude": 13.0936, "longitude": -59.6156, "location": "Bridgetown", "year": 2019, "speech_count": 1 }, "geometry": { "type": "Point", "coordinates": [ -59.6156, 13.0936 ] } },
{ "type": "Feature", "properties": { "latitude": 13.0938, "longitude": -59.6173, "location": "Bridgetown", "year": 2019, "speech_count": 1 }, "geometry": { "type": "Point", "coordinates": [ -59.6173, 13.0938 ] } },
{ "type": "Feature", "properties": { "latitude": 13.0938, "longitude": -59.6146, "location": "Bridgetown", "year": 2019, "speech_count": 1 }, "geometry": { "type": "Point", "coordinates": [ -59.6146, 13.0938 ] } },
{ "type": "Feature", "properties": { "latitude": 13.75, "longitude": 100.5166, "location": "Bangkok", "year": 2019, "speech_count": 1 }, "geometry": { "type": "Point", "coordinates": [ 100.5166, 13.75 ] } },
{ "type": "Feature", "properties": { "latitude": 13.7563, "longitude": 100.5018, "location": "Bangkok", "year": 2019, "speech_count": 4 }, "geometry": { "type": "Point", "coordinates": [ 100.5018, 13.7563 ] } },
{ "type": "Feature", "properties": { "latitude": 14.5468, "longitude": 121.0086, "location": "Pasay City", "year": 2019, "speech_count": 1 }, "geometry": { "type": "Point", "coordinates": [ 121.0086, 14.5468 ] } },
{ "type": "Feature", "properties": { "latitude": 14.5469, "longitude": 121.0244, "location": "Pasay City", "year": 2019, "speech_count": 1 }, "geometry": { "type": "Point", "coordinates": [ 121.0244, 14.5469 ] } },
{ "type": "Feature", "properties": { "latitude": 14.5547, "longitude": 121.0244, "location": "Makati", "year": 2019, "speech_count": 6 }, "geometry": { "type": "Point", "coordinates": [ 121.0244, 14.5547 ] } },
{ "type": "Feature", "properties": { "latitude": 14.5754, "longitude": 120.9708, "location": "Manila", "year": 2019, "speech_count": 1 }, "geometry": { "type": "Point", "coordinates": [ 120.9708, 14.5754 ] } },
{ "type": "Feature", "properties": { "latitude": 14.5833, "longitude": 120.9667, "location": "Manila", "year": 2019, "speech_count": 1 }, "geometry": { "type": "Point", "coordinates": [ 120.9667, 14.5833 ] } },
{ "type": "Feature", "properties": { "latitude": 14.5995, "longitude": 120.9842, "location": "Manila", "year": 2019, "speech_count": 25 }, "geometry": { "type": "Point", "coordinates": [ 120.9842, 14.5995 ] } },
{ "type": "Feature", "properties": { "latitude": 14.8096, "longitude": 120.2475, "location": "Subic, Zambales", "year": 2019, "speech_count": 1 }, "geometry": { "type": "Point", "coordinates": [ 120.2475, 14.8096 ] } },
{ "type": "Feature", "properties": { "latitude": 15.0806, "longitude": 120.5417, "location": "New Clark City, Capas, Tarlac", "year": 2019, "speech_count": 1 }, "geometry": { "type": "Point", "coordinates": [ 120.5417, 15.0806 ] } },
{ "type": "Feature", "properties": { "latitude": 17.298, "longitude": -62.734, "location": "Basseterre", "year": 2019, "speech_count": 1 }, "geometry": { "type": "Point", "coordinates": [ -62.734, 17.298 ] } },
{ "type": "Feature", "properties": { "latitude": 17.385, "longitude": 78.4867, "location": "Hyderabad", "year": 2019, "speech_count": 1 }, "geometry": { "type": "Point", "coordinates": [ 78.4867, 17.385 ] } },
{ "type": "Feature", "properties": { "latitude": 18.5204, "longitude": 73.8567, "location": "Pune", "year": 2019, "speech_count": 1 }, "geometry": { "type": "Point", "coordinates": [ 73.8567, 18.5204 ] } },
{ "type": "Feature", "properties": { "latitude": 19.0756, "longitude": 72.8777, "location": "Bombay", "year": 2019, "speech_count": 1 }, "geometry": { "type": "Point", "coordinates": [ 72.8777, 19.0756 ] } },
{ "type": "Feature", "properties": { "latitude": 19.076, "longitude": 72.8777, "location": "Bombay", "year": 2019, "speech_count": 9 }, "geometry": { "type": "Point", "coordinates": [ 72.8777, 19.076 ] } },
{ "type": "Feature", "properties": { "latitude": 19.4326, "longitude": -99.1332, "location": "Mexico City", "year": 2019, "speech_count": 2 }, "geometry": { "type": "Point", "coordinates": [ -99.1332, 19.4326 ] } },
{ "type": "Feature", "properties": { "latitude": 22.2783, "longitude": 114.1747, "location": "Hong Kong", "year": 2019, "speech_count": 1 }, "geometry": { "type": "Point", "coordinates": [ 114.1747, 22.2783 ] } },
{ "type": "Feature", "properties": { "latitude": 22.3027, "longitude": 114.1773, "location": "Hong Kong", "year": 2019, "speech_count": 1 }, "geometry": { "type": "Point", "coordinates": [ 114.1773, 22.3027 ] } },
{ "type": "Feature", "properties": { "latitude": 22.3027, "longitude": 114.1774, "location": "Hong Kong", "year": 2019, "speech_count": 1 }, "geometry": { "type": "Point", "coordinates": [ 114.1774, 22.3027 ] } },
{ "type": "Feature", "properties": { "latitude": 22.3027, "longitude": 114.1777, "location": "Hong Kong", "year": 2019, "speech_count": 5 }, "geometry": { "type": "Point", "coordinates": [ 114.1777, 22.3027 ] } },
{ "type": "Feature", "properties": { "latitude": 22.3193, "longitude": 114.1694, "location": "Hong Kong", "year": 2019, "speech_count": 5 }, "geometry": { "type": "Point", "coordinates": [ 114.1694, 22.3193 ] } },
{ "type": "Feature", "properties": { "latitude": 22.3964, "longitude": 114.1095, "location": "Hong Kong", "year": 2019, "speech_count": 4 }, "geometry": { "type": "Point", "coordinates": [ 114.1095, 22.3964 ] } },
{ "type": "Feature", "properties": { "latitude": 22.5431, "longitude": 114.0579, "location": "Shenzen", "year": 2019, "speech_count": 1 }, "geometry": { "type": "Point", "coordinates": [ 114.0579, 22.5431 ] } },
{ "type": "Feature", "properties": { "latitude": 23.0225, "longitude": 72.5714, "location": "Ahmedabad", "year": 2019, "speech_count": 1 }, "geometry": { "type": "Point", "coordinates": [ 72.5714, 23.0225 ] } },
{ "type": "Feature", "properties": { "latitude": 23.2254, "longitude": 72.6369, "location": "Gandhinagar", "year": 2019, "speech_count": 1 }, "geometry": { "type": "Point", "coordinates": [ 72.6369, 23.2254 ] } },
{ "type": "Feature", "properties": { "latitude": 23.5096, "longitude": -75.8483, "location": "Exuma", "year": 2019, "speech_count": 1 }, "geometry": { "type": "Point", "coordinates": [ -75.8483, 23.5096 ] } },
{ "type": "Feature", "properties": { "latitude": 24.4667, "longitude": 54.3667, "location": "Abu Dhabi", "year": 2019, "speech_count": 2 }, "geometry": { "type": "Point", "coordinates": [ 54.3667, 24.4667 ] } },
{ "type": "Feature", "properties": { "latitude": 24.8607, "longitude": 67.0011, "location": "Karachi", "year": 2019, "speech_count": 2 }, "geometry": { "type": "Point", "coordinates": [ 67.0011, 24.8607 ] } },
{ "type": "Feature", "properties": { "latitude": 24.8608, "longitude": 67.009, "location": "Karachi", "year": 2019, "speech_count": 1 }, "geometry": { "type": "Point", "coordinates": [ 67.009, 24.8608 ] } },
{ "type": "Feature", "properties": { "latitude": 25.0624, "longitude": -77.3446, "location": "Nassau", "year": 2019, "speech_count": 2 }, "geometry": { "type": "Point", "coordinates": [ -77.3446, 25.0624 ] } },
{ "type": "Feature", "properties": { "latitude": 25.0633, "longitude": -77.3428, "location": "Nassau", "year": 2019, "speech_count": 1 }, "geometry": { "type": "Point", "coordinates": [ -77.3428, 25.0633 ] } },
{ "type": "Feature", "properties": { "latitude": 25.0667, "longitude": -77.3333, "location": "Nassau", "year": 2019, "speech_count": 1 }, "geometry": { "type": "Point", "coordinates": [ -77.3333, 25.0667 ] } },
{ "type": "Feature", "properties": { "latitude": 25.077, "longitude": -77.343, "location": "Nassau", "year": 2019, "speech_count": 1 }, "geometry": { "type": "Point", "coordinates": [ -77.343, 25.077 ] } },
{ "type": "Feature", "properties": { "latitude": 26.1442, "longitude": -81.8031, "location": "Naples, Florida", "year": 2019, "speech_count": 1 }, "geometry": { "type": "Point", "coordinates": [ -81.8031, 26.1442 ] } },
{ "type": "Feature", "properties": { "latitude": 27.7172, "longitude": 85.324, "location": "Kathmandu", "year": 2019, "speech_count": 1 }, "geometry": { "type": "Point", "coordinates": [ 85.324, 27.7172 ] } },
{ "type": "Feature", "properties": { "latitude": 28.6139, "longitude": 77.2089, "location": "Delhi", "year": 2019, "speech_count": 1 }, "geometry": { "type": "Point", "coordinates": [ 77.2089, 28.6139 ] } },
{ "type": "Feature", "properties": { "latitude": 28.6139, "longitude": 77.209, "location": "Delhi", "year": 2019, "speech_count": 2 }, "geometry": { "type": "Point", "coordinates": [ 77.209, 28.6139 ] } },
{ "type": "Feature", "properties": { "latitude": 29.3697, "longitude": 47.9783, "location": "Kuwait City", "year": 2019, "speech_count": 1 }, "geometry": { "type": "Point", "coordinates": [ 47.9783, 29.3697 ] } },
{ "type": "Feature", "properties": { "latitude": 30.4494, "longitude": 78.0723, "location": "Mussoorie", "year": 2019, "speech_count": 1 }, "geometry": { "type": "Point", "coordinates": [ 78.0723, 30.4494 ] } },
{ "type": "Feature", "properties": { "latitude": 30.6343, "longitude": -81.4342, "location": "Amelia Island, Florida", "year": 2019, "speech_count": 1 }, "geometry": { "type": "Point", "coordinates": [ -81.4342, 30.6343 ] } },
{ "type": "Feature", "properties": { "latitude": 31.2304, "longitude": 121.4737, "location": "Shanghai", "year": 2019, "speech_count": 3 }, "geometry": { "type": "Point", "coordinates": [ 121.4737, 31.2304 ] } },
{ "type": "Feature", "properties": { "latitude": 31.56, "longitude": 130.55, "location": "Kagoshima", "year": 2019, "speech_count": 1 }, "geometry": { "type": "Point", "coordinates": [ 130.55, 31.56 ] } },
{ "type": "Feature", "properties": { "latitude": 31.7683, "longitude": 35.2137, "location": "Jerusalem", "year": 2019, "speech_count": 2 }, "geometry": { "type": "Point", "coordinates": [ 35.2137, 31.7683 ] } },
{ "type": "Feature", "properties": { "latitude": 32.0853, "longitude": 34.7818, "location": "Tel Aviv", "year": 2019, "speech_count": 2 }, "geometry": { "type": "Point", "coordinates": [ 34.7818, 32.0853 ] } },
{ "type": "Feature", "properties": { "latitude": 32.1615, "longitude": 34.8444, "location": "Herzliya", "year": 2019, "speech_count": 1 }, "geometry": { "type": "Point", "coordinates": [ 34.8444, 32.1615 ] } },
{ "type": "Feature", "properties": { "latitude": 32.1798, "longitude": 34.8567, "location": "Herzliya", "year": 2019, "speech_count": 1 }, "geometry": { "type": "Point", "coordinates": [ 34.8567, 32.1798 ] } },
{ "type": "Feature", "properties": { "latitude": 32.2611, "longitude": -107.7411, "location": "Deming", "year": 2019, "speech_count": 1 }, "geometry": { "type": "Point", "coordinates": [ -107.7411, 32.2611 ] } },
{ "type": "Feature", "properties": { "latitude": 32.7157, "longitude": -117.1611, "location": "San Diego", "year": 2019, "speech_count": 1 }, "geometry": { "type": "Point", "coordinates": [ -117.1611, 32.7157 ] } },
{ "type": "Feature", "properties": { "latitude": 32.7456, "longitude": 129.8636, "location": "Nagasaki", "year": 2019, "speech_count": 1 }, "geometry": { "type": "Point", "coordinates": [ 129.8636, 32.7456 ] } },
{ "type": "Feature", "properties": { "latitude": 32.7767, "longitude": -96.797, "location": "Dallas", "year": 2019, "speech_count": 1 }, "geometry": { "type": "Point", "coordinates": [ -96.797, 32.7767 ] } },
{ "type": "Feature", "properties": { "latitude": 32.7894, "longitude": 130.7417, "location": "Kumamoto", "year": 2019, "speech_count": 1 }, "geometry": { "type": "Point", "coordinates": [ 130.7417, 32.7894 ] } },
{ "type": "Feature", "properties": { "latitude": 33.2381, "longitude": 131.6129, "location": "Oita", "year": 2019, "speech_count": 1 }, "geometry": { "type": "Point", "coordinates": [ 131.6129, 33.2381 ] } },
{ "type": "Feature", "properties": { "latitude": 33.5041, "longitude": -90.2306, "location": "Itta Bena", "year": 2019, "speech_count": 1 }, "geometry": { "type": "Point", "coordinates": [ -90.2306, 33.5041 ] } },
{ "type": "Feature", "properties": { "latitude": 33.6066, "longitude": 130.4181, "location": "Fukuoka", "year": 2019, "speech_count": 1 }, "geometry": { "type": "Point", "coordinates": [ 130.4181, 33.6066 ] } },
{ "type": "Feature", "properties": { "latitude": 33.6959, "longitude": 73.0612, "location": "Islamabad", "year": 2019, "speech_count": 1 }, "geometry": { "type": "Point", "coordinates": [ 73.0612, 33.6959 ] } },
{ "type": "Feature", "properties": { "latitude": 34.0253, "longitude": -6.8369, "location": "Rabat", "year": 2019, "speech_count": 1 }, "geometry": { "type": "Point", "coordinates": [ -6.8369, 34.0253 ] } },
{ "type": "Feature", "properties": { "latitude": 34.0253, "longitude": -6.8361, "location": "Rabat", "year": 2019, "speech_count": 1 }, "geometry": { "type": "Point", "coordinates": [ -6.8361, 34.0253 ] } },
{ "type": "Feature", "properties": { "latitude": 34.0522, "longitude": -118.2437, "location": "Los Angeles", "year": 2019, "speech_count": 1 }, "geometry": { "type": "Point", "coordinates": [ -118.2437, 34.0522 ] } },
{ "type": "Feature", "properties": { "latitude": 34.2161, "longitude": 131.47, "location": "Yamaguchi", "year": 2019, "speech_count": 1 }, "geometry": { "type": "Point", "coordinates": [ 131.47, 34.2161 ] } },
{ "type": "Feature", "properties": { "latitude": 34.3442, "longitude": 134.0442, "location": "Kagawa", "year": 2019, "speech_count": 1 }, "geometry": { "type": "Point", "coordinates": [ 134.0442, 34.3442 ] } },
{ "type": "Feature", "properties": { "latitude": 34.3925, "longitude": 132.4563, "location": "Hiroshima", "year": 2019, "speech_count": 1 }, "geometry": { "type": "Point", "coordinates": [ 132.4563, 34.3925 ] } },
{ "type": "Feature", "properties": { "latitude": 34.6617, "longitude": 133.9353, "location": "Okayama", "year": 2019, "speech_count": 1 }, "geometry": { "type": "Point", "coordinates": [ 133.9353, 34.6617 ] } },
{ "type": "Feature", "properties": { "latitude": 34.6913, "longitude": 135.183, "location": "Hyogo", "year": 2019, "speech_count": 1 }, "geometry": { "type": "Point", "coordinates": [ 135.183, 34.6913 ] } },
{ "type": "Feature", "properties": { "latitude": 34.6937, "longitude": 135.5023, "location": "Osaka", "year": 2019, "speech_count": 1 }, "geometry": { "type": "Point", "coordinates": [ 135.5023, 34.6937 ] } },
{ "type": "Feature", "properties": { "latitude": 34.7456, "longitude": 136.6397, "location": "Mie", "year": 2019, "speech_count": 1 }, "geometry": { "type": "Point", "coordinates": [ 136.6397, 34.7456 ] } },
{ "type": "Feature", "properties": { "latitude": 34.9766, "longitude": 138.3831, "location": "Shizuoka", "year": 2019, "speech_count": 1 }, "geometry": { "type": "Point", "coordinates": [ 138.3831, 34.9766 ] } },
{ "type": "Feature", "properties": { "latitude": 35.1802, "longitude": 136.9064, "location": "Nagoya", "year": 2019, "speech_count": 1 }, "geometry": { "type": "Point", "coordinates": [ 136.9064, 35.1802 ] } },
{ "type": "Feature", "properties": { "latitude": 35.1815, "longitude": 136.9064, "location": "Nagoya", "year": 2019, "speech_count": 1 }, "geometry": { "type": "Point", "coordinates": [ 136.9064, 35.1815 ] } },
{ "type": "Feature", "properties": { "latitude": 35.3637, "longitude": 24.4795, "location": "Rethymno", "year": 2019, "speech_count": 1 }, "geometry": { "type": "Point", "coordinates": [ 24.4795, 35.3637 ] } },
{ "type": "Feature", "properties": { "latitude": 35.4478, "longitude": 139.6425, "location": "Yokohama", "year": 2019, "speech_count": 1 }, "geometry": { "type": "Point", "coordinates": [ 139.6425, 35.4478 ] } },
{ "type": "Feature", "properties": { "latitude": 35.4722, "longitude": 133.0504, "location": "Shimane", "year": 2019, "speech_count": 1 }, "geometry": { "type": "Point", "coordinates": [ 133.0504, 35.4722 ] } },
{ "type": "Feature", "properties": { "latitude": 35.6564, "longitude": 138.5439, "location": "Yamanashi", "year": 2019, "speech_count": 1 }, "geometry": { "type": "Point", "coordinates": [ 138.5439, 35.6564 ] } },
{ "type": "Feature", "properties": { "latitude": 35.6895, "longitude": 139.6917, "location": "Tokyo", "year": 2019, "speech_count": 23 }, "geometry": { "type": "Point", "coordinates": [ 139.6917, 35.6895 ] } },
{ "type": "Feature", "properties": { "latitude": 35.8997, "longitude": 14.5147, "location": "Valletta", "year": 2019, "speech_count": 1 }, "geometry": { "type": "Point", "coordinates": [ 14.5147, 35.8997 ] } },
{ "type": "Feature", "properties": { "latitude": 36.3442, "longitude": 140.4064, "location": "Ibaraki", "year": 2019, "speech_count": 1 }, "geometry": { "type": "Point", "coordinates": [ 140.4064, 36.3442 ] } },
{ "type": "Feature", "properties": { "latitude": 37.4275, "longitude": -122.1697, "location": "Stanford", "year": 2019, "speech_count": 2 }, "geometry": { "type": "Point", "coordinates": [ -122.1697, 37.4275 ] } },
{ "type": "Feature", "properties": { "latitude": 37.5139, "longitude": 126.9828, "location": "Seoul", "year": 2019, "speech_count": 1 }, "geometry": { "type": "Point", "coordinates": [ 126.9828, 37.5139 ] } },
{ "type": "Feature", "properties": { "latitude": 37.5139, "longitude": 127.0266, "location": "Seoul", "year": 2019, "speech_count": 2 }, "geometry": { "type": "Point", "coordinates": [ 127.0266, 37.5139 ] } },
{ "type": "Feature", "properties": { "latitude": 37.5407, "longitude": -77.436, "location": "Richmond", "year": 2019, "speech_count": 1 }, "geometry": { "type": "Point", "coordinates": [ -77.436, 37.5407 ] } },
{ "type": "Feature", "properties": { "latitude": 37.7749, "longitude": -122.4194, "location": "San Francisco", "year": 2019, "speech_count": 6 }, "geometry": { "type": "Point", "coordinates": [ -122.4194, 37.7749 ] } },
{ "type": "Feature", "properties": { "latitude": 37.9838, "longitude": 23.7275, "location": "Athens", "year": 2019, "speech_count": 8 }, "geometry": { "type": "Point", "coordinates": [ 23.7275, 37.9838 ] } },
{ "type": "Feature", "properties": { "latitude": 38.4802, "longitude": 22.4997, "location": "Delphi", "year": 2019, "speech_count": 1 }, "geometry": { "type": "Point", "coordinates": [ 22.4997, 38.4802 ] } },
{ "type": "Feature", "properties": { "latitude": 38.627, "longitude": -90.1994, "location": "St. Louis", "year": 2019, "speech_count": 3 }, "geometry": { "type": "Point", "coordinates": [ -90.1994, 38.627 ] } },
{ "type": "Feature", "properties": { "latitude": 38.7167, "longitude": -9.1333, "location": "Lisbon", "year": 2019, "speech_count": 6 }, "geometry": { "type": "Point", "coordinates": [ -9.1333, 38.7167 ] } },
{ "type": "Feature", "properties": { "latitude": 38.7223, "longitude": -9.1393, "location": "Lisbon", "year": 2019, "speech_count": 8 }, "geometry": { "type": "Point", "coordinates": [ -9.1393, 38.7223 ] } },
{ "type": "Feature", "properties": { "latitude": 38.7997, "longitude": -9.3886, "location": "Sintra", "year": 2019, "speech_count": 2 }, "geometry": { "type": "Point", "coordinates": [ -9.3886, 38.7997 ] } },
{ "type": "Feature", "properties": { "latitude": 38.8799, "longitude": -77.1027, "location": "Arlington", "year": 2019, "speech_count": 1 }, "geometry": { "type": "Point", "coordinates": [ -77.1027, 38.8799 ] } },
{ "type": "Feature", "properties": { "latitude": 38.8921, "longitude": -77.0369, "location": "Washington", "year": 2019, "speech_count": 1 }, "geometry": { "type": "Point", "coordinates": [ -77.0369, 38.8921 ] } },
{ "type": "Feature", "properties": { "latitude": 38.8951, "longitude": -77.0364, "location": "Washington", "year": 2019, "speech_count": 43 }, "geometry": { "type": "Point", "coordinates": [ -77.0364, 38.8951 ] } },
{ "type": "Feature", "properties": { "latitude": 38.9072, "longitude": -77.0369, "location": "Washington", "year": 2019, "speech_count": 2 }, "geometry": { "type": "Point", "coordinates": [ -77.0369, 38.9072 ] } },
{ "type": "Feature", "properties": { "latitude": 39.0997, "longitude": -94.5786, "location": "Kansas City", "year": 2019, "speech_count": 2 }, "geometry": { "type": "Point", "coordinates": [ -94.5786, 39.0997 ] } },
{ "type": "Feature", "properties": { "latitude": 39.1031, "longitude": -84.512, "location": "Cincinnati", "year": 2019, "speech_count": 1 }, "geometry": { "type": "Point", "coordinates": [ -84.512, 39.1031 ] } },
{ "type": "Feature", "properties": { "latitude": 39.1195, "longitude": -77.5664, "location": "Leesburg, Virginia (USA)", "year": 2019, "speech_count": 1 }, "geometry": { "type": "Point", "coordinates": [ -77.5664, 39.1195 ] } },
{ "type": "Feature", "properties": { "latitude": 39.4699, "longitude": -0.3763, "location": "Valencia", "year": 2019, "speech_count": 1 }, "geometry": { "type": "Point", "coordinates": [ -0.3763, 39.4699 ] } },
{ "type": "Feature", "properties": { "latitude": 39.7392, "longitude": -104.9903, "location": "Denver", "year": 2019, "speech_count": 1 }, "geometry": { "type": "Point", "coordinates": [ -104.9903, 39.7392 ] } },
{ "type": "Feature", "properties": { "latitude": 39.9042, "longitude": 116.4074, "location": "Beijing", "year": 2019, "speech_count": 6 }, "geometry": { "type": "Point", "coordinates": [ 116.4074, 39.9042 ] } },
{ "type": "Feature", "properties": { "latitude": 39.9075, "longitude": 116.3972, "location": "Beijing", "year": 2019, "speech_count": 1 }, "geometry": { "type": "Point", "coordinates": [ 116.3972, 39.9075 ] } },
{ "type": "Feature", "properties": { "latitude": 39.9526, "longitude": -75.1652, "location": "Philadelphia", "year": 2019, "speech_count": 2 }, "geometry": { "type": "Point", "coordinates": [ -75.1652, 39.9526 ] } },
{ "type": "Feature", "properties": { "latitude": 40.3439, "longitude": -74.6536, "location": "Princeton, New Jersey", "year": 2019, "speech_count": 1 }, "geometry": { "type": "Point", "coordinates": [ -74.6536, 40.3439 ] } },
{ "type": "Feature", "properties": { "latitude": 40.4165, "longitude": -3.7026, "location": "Madrid", "year": 2019, "speech_count": 2 }, "geometry": { "type": "Point", "coordinates": [ -3.7026, 40.4165 ] } },
{ "type": "Feature", "properties": { "latitude": 40.4167, "longitude": -3.7033, "location": "Madrid", "year": 2019, "speech_count": 11 }, "geometry": { "type": "Point", "coordinates": [ -3.7033, 40.4167 ] } },
{ "type": "Feature", "properties": { "latitude": 40.4168, "longitude": -3.7038, "location": "Madrid", "year": 2019, "speech_count": 24 }, "geometry": { "type": "Point", "coordinates": [ -3.7038, 40.4168 ] } },
{ "type": "Feature", "properties": { "latitude": 40.7127, "longitude": -74.0059, "location": "New York", "year": 2019, "speech_count": 10 }, "geometry": { "type": "Point", "coordinates": [ -74.0059, 40.7127 ] } },
{ "type": "Feature", "properties": { "latitude": 40.7127, "longitude": -74.0059, "location": "New York, New York City", "year": 2019, "speech_count": 1 }, "geometry": { "type": "Point", "coordinates": [ -74.0059, 40.7127 ] } },
{ "type": "Feature", "properties": { "latitude": 40.7128, "longitude": -74.006, "location": "New York", "year": 2019, "speech_count": 11 }, "geometry": { "type": "Point", "coordinates": [ -74.006, 40.7128 ] } },
{ "type": "Feature", "properties": { "latitude": 40.7128, "longitude": -74.0059, "location": "New York", "year": 2019, "speech_count": 25 }, "geometry": { "type": "Point", "coordinates": [ -74.0059, 40.7128 ] } },
{ "type": "Feature", "properties": { "latitude": 40.7608, "longitude": -111.891, "location": "Salt Lake City", "year": 2019, "speech_count": 2 }, "geometry": { "type": "Point", "coordinates": [ -111.891, 40.7608 ] } },
{ "type": "Feature", "properties": { "latitude": 40.8244, "longitude": 140.7404, "location": "Aomori", "year": 2019, "speech_count": 1 }, "geometry": { "type": "Point", "coordinates": [ 140.7404, 40.8244 ] } },
{ "type": "Feature", "properties": { "latitude": 40.8498, "longitude": -73.8639, "location": "Bronx, New York", "year": 2019, "speech_count": 1 }, "geometry": { "type": "Point", "coordinates": [ -73.8639, 40.8498 ] } },
{ "type": "Feature", "properties": { "latitude": 40.8518, "longitude": 14.2681, "location": "Naples", "year": 2019, "speech_count": 1 }, "geometry": { "type": "Point", "coordinates": [ 14.2681, 40.8518 ] } },
{ "type": "Feature", "properties": { "latitude": 41.0082, "longitude": 28.9784, "location": "Istanbul", "year": 2019, "speech_count": 1 }, "geometry": { "type": "Point", "coordinates": [ 28.9784, 41.0082 ] } },
{ "type": "Feature", "properties": { "latitude": 41.1131, "longitude": 20.7992, "location": "Ohrid", "year": 2019, "speech_count": 1 }, "geometry": { "type": "Point", "coordinates": [ 20.7992, 41.1131 ] } },
{ "type": "Feature", "properties": { "latitude": 41.3081, "longitude": -72.9282, "location": "New Haven", "year": 2019, "speech_count": 2 }, "geometry": { "type": "Point", "coordinates": [ -72.9282, 41.3081 ] } },
{ "type": "Feature", "properties": { "latitude": 41.3275, "longitude": 19.8187, "location": "Tirana", "year": 2019, "speech_count": 10 }, "geometry": { "type": "Point", "coordinates": [ 19.8187, 41.3275 ] } },
{ "type": "Feature", "properties": { "latitude": 41.3275, "longitude": 19.8189, "location": "Tirana", "year": 2019, "speech_count": 6 }, "geometry": { "type": "Point", "coordinates": [ 19.8189, 41.3275 ] } },
{ "type": "Feature", "properties": { "latitude": 41.3851, "longitude": 2.1734, "location": "Barcelona", "year": 2019, "speech_count": 2 }, "geometry": { "type": "Point", "coordinates": [ 2.1734, 41.3851 ] } },
{ "type": "Feature", "properties": { "latitude": 41.4089, "longitude": -75.6624, "location": "Scranton", "year": 2019, "speech_count": 1 }, "geometry": { "type": "Point", "coordinates": [ -75.6624, 41.4089 ] } },
{ "type": "Feature", "properties": { "latitude": 41.7786, "longitude": 140.7394, "location": "Hakodate", "year": 2019, "speech_count": 1 }, "geometry": { "type": "Point", "coordinates": [ 140.7394, 41.7786 ] } },
{ "type": "Feature", "properties": { "latitude": 41.8236, "longitude": -71.4194, "location": "Providence", "year": 2019, "speech_count": 1 }, "geometry": { "type": "Point", "coordinates": [ -71.4194, 41.8236 ] } },
{ "type": "Feature", "properties": { "latitude": 41.8781, "longitude": -87.6298, "location": "Chicago", "year": 2019, "speech_count": 3 }, "geometry": { "type": "Point", "coordinates": [ -87.6298, 41.8781 ] } },
{ "type": "Feature", "properties": { "latitude": 41.8902, "longitude": 12.4922, "location": "Rome", "year": 2019, "speech_count": 1 }, "geometry": { "type": "Point", "coordinates": [ 12.4922, 41.8902 ] } },
{ "type": "Feature", "properties": { "latitude": 41.8902, "longitude": 12.4923, "location": "Rome", "year": 2019, "speech_count": 13 }, "geometry": { "type": "Point", "coordinates": [ 12.4923, 41.8902 ] } },
{ "type": "Feature", "properties": { "latitude": 41.9966, "longitude": 21.4295, "location": "Skopje", "year": 2019, "speech_count": 2 }, "geometry": { "type": "Point", "coordinates": [ 21.4295, 41.9966 ] } },
{ "type": "Feature", "properties": { "latitude": 41.9973, "longitude": 21.4278, "location": "Skopje", "year": 2019, "speech_count": 2 }, "geometry": { "type": "Point", "coordinates": [ 21.4278, 41.9973 ] } },
{ "type": "Feature", "properties": { "latitude": 41.9973, "longitude": 21.4279, "location": "Skopje", "year": 2019, "speech_count": 1 }, "geometry": { "type": "Point", "coordinates": [ 21.4279, 41.9973 ] } },
{ "type": "Feature", "properties": { "latitude": 42.0, "longitude": 21.4333, "location": "Skopje", "year": 2019, "speech_count": 2 }, "geometry": { "type": "Point", "coordinates": [ 21.4333, 42.0 ] } },
{ "type": "Feature", "properties": { "latitude": 42.0024, "longitude": 21.4361, "location": "Skopje", "year": 2019, "speech_count": 1 }, "geometry": { "type": "Point", "coordinates": [ 21.4361, 42.0024 ] } },
{ "type": "Feature", "properties": { "latitude": 42.0024, "longitude": 21.4455, "location": "Skopje", "year": 2019, "speech_count": 1 }, "geometry": { "type": "Point", "coordinates": [ 21.4455, 42.0024 ] } },
{ "type": "Feature", "properties": { "latitude": 42.2236, "longitude": 14.3915, "location": "Lanciano", "year": 2019, "speech_count": 1 }, "geometry": { "type": "Point", "coordinates": [ 14.3915, 42.2236 ] } },
{ "type": "Feature", "properties": { "latitude": 42.234, "longitude": 14.391, "location": "Lanciano", "year": 2019, "speech_count": 1 }, "geometry": { "type": "Point", "coordinates": [ 14.391, 42.234 ] } },
{ "type": "Feature", "properties": { "latitude": 42.3601, "longitude": -71.0589, "location": "Boston", "year": 2019, "speech_count": 3 }, "geometry": { "type": "Point", "coordinates": [ -71.0589, 42.3601 ] } },
{ "type": "Feature", "properties": { "latitude": 42.6525, "longitude": -73.7562, "location": "Albany", "year": 2019, "speech_count": 1 }, "geometry": { "type": "Point", "coordinates": [ -73.7562, 42.6525 ] } },
{ "type": "Feature", "properties": { "latitude": 42.6628, "longitude": 21.1651, "location": "Pristina", "year": 2019, "speech_count": 4 }, "geometry": { "type": "Point", "coordinates": [ 21.1651, 42.6628 ] } },
{ "type": "Feature", "properties": { "latitude": 42.6629, "longitude": 21.1651, "location": "Pristina", "year": 2019, "speech_count": 1 }, "geometry": { "type": "Point", "coordinates": [ 21.1651, 42.6629 ] } },
{ "type": "Feature", "properties": { "latitude": 42.6629, "longitude": 21.1655, "location": "Pristina", "year": 2019, "speech_count": 4 }, "geometry": { "type": "Point", "coordinates": [ 21.1655, 42.6629 ] } },
{ "type": "Feature", "properties": { "latitude": 42.6975, "longitude": 23.3241, "location": "Sofia", "year": 2019, "speech_count": 1 }, "geometry": { "type": "Point", "coordinates": [ 23.3241, 42.6975 ] } },
{ "type": "Feature", "properties": { "latitude": 42.6975, "longitude": 23.3242, "location": "Sofia", "year": 2019, "speech_count": 1 }, "geometry": { "type": "Point", "coordinates": [ 23.3242, 42.6975 ] } },
{ "type": "Feature", "properties": { "latitude": 43.5501, "longitude": -5.9253, "location": "Avilés (Asturias)", "year": 2019, "speech_count": 1 }, "geometry": { "type": "Point", "coordinates": [ -5.9253, 43.5501 ] } },
{ "type": "Feature", "properties": { "latitude": 43.5827, "longitude": -110.8318, "location": "Jackson Hole", "year": 2019, "speech_count": 2 }, "geometry": { "type": "Point", "coordinates": [ -110.8318, 43.5827 ] } },
{ "type": "Feature", "properties": { "latitude": 43.6181, "longitude": -110.7522, "location": "Jackson Hole", "year": 2019, "speech_count": 1 }, "geometry": { "type": "Point", "coordinates": [ -110.7522, 43.6181 ] } },
{ "type": "Feature", "properties": { "latitude": 43.6532, "longitude": -79.3832, "location": "Toronto", "year": 2019, "speech_count": 2 }, "geometry": { "type": "Point", "coordinates": [ -79.3832, 43.6532 ] } },
{ "type": "Feature", "properties": { "latitude": 43.8563, "longitude": 18.4133, "location": "Sarajewo", "year": 2019, "speech_count": 1 }, "geometry": { "type": "Point", "coordinates": [ 18.4133, 43.8563 ] } },
{ "type": "Feature", "properties": { "latitude": 44.4268, "longitude": 26.1025, "location": "Bucharest", "year": 2019, "speech_count": 5 }, "geometry": { "type": "Point", "coordinates": [ 26.1025, 44.4268 ] } },
{ "type": "Feature", "properties": { "latitude": 44.4322, "longitude": 26.1063, "location": "Bucharest", "year": 2019, "speech_count": 3 }, "geometry": { "type": "Point", "coordinates": [ 26.1063, 44.4322 ] } },
{ "type": "Feature", "properties": { "latitude": 44.4944, "longitude": 33.5965, "location": "Balaclava", "year": 2019, "speech_count": 1 }, "geometry": { "type": "Point", "coordinates": [ 33.5965, 44.4944 ] } },
{ "type": "Feature", "properties": { "latitude": 44.4949, "longitude": 11.3426, "location": "Bologna", "year": 2019, "speech_count": 1 }, "geometry": { "type": "Point", "coordinates": [ 11.3426, 44.4949 ] } },
{ "type": "Feature", "properties": { "latitude": 44.6488, "longitude": -63.5752, "location": "Halifax", "year": 2019, "speech_count": 1 }, "geometry": { "type": "Point", "coordinates": [ -63.5752, 44.6488 ] } },
{ "type": "Feature", "properties": { "latitude": 44.818, "longitude": 20.4681, "location": "Belgrade", "year": 2019, "speech_count": 1 }, "geometry": { "type": "Point", "coordinates": [ 20.4681, 44.818 ] } },
{ "type": "Feature", "properties": { "latitude": 44.8186, "longitude": 20.4681, "location": "Belgrade", "year": 2019, "speech_count": 5 }, "geometry": { "type": "Point", "coordinates": [ 20.4681, 44.8186 ] } },
{ "type": "Feature", "properties": { "latitude": 44.8378, "longitude": -0.5792, "location": "Bordeaux", "year": 2019, "speech_count": 1 }, "geometry": { "type": "Point", "coordinates": [ -0.5792, 44.8378 ] } },
{ "type": "Feature", "properties": { "latitude": 44.9778, "longitude": -93.265, "location": "Minneapolis", "year": 2019, "speech_count": 1 }, "geometry": { "type": "Point", "coordinates": [ -93.265, 44.9778 ] } },
{ "type": "Feature", "properties": { "latitude": 45.4215, "longitude": -75.6972, "location": "Ottawa", "year": 2019, "speech_count": 3 }, "geometry": { "type": "Point", "coordinates": [ -75.6972, 45.4215 ] } },
{ "type": "Feature", "properties": { "latitude": 45.4215, "longitude": -75.6919, "location": "Ottawa", "year": 2019, "speech_count": 4 }, "geometry": { "type": "Point", "coordinates": [ -75.6919, 45.4215 ] } },
{ "type": "Feature", "properties": { "latitude": 45.4408, "longitude": 12.3155, "location": "Venice", "year": 2019, "speech_count": 1 }, "geometry": { "type": "Point", "coordinates": [ 12.3155, 45.4408 ] } },
{ "type": "Feature", "properties": { "latitude": 45.4639, "longitude": 9.1889, "location": "Milan", "year": 2019, "speech_count": 1 }, "geometry": { "type": "Point", "coordinates": [ 9.1889, 45.4639 ] } },
{ "type": "Feature", "properties": { "latitude": 45.4642, "longitude": 9.1895, "location": "Milan", "year": 2019, "speech_count": 1 }, "geometry": { "type": "Point", "coordinates": [ 9.1895, 45.4642 ] } },
{ "type": "Feature", "properties": { "latitude": 45.4875, "longitude": -122.3094, "location": "One Welches", "year": 2019, "speech_count": 1 }, "geometry": { "type": "Point", "coordinates": [ -122.3094, 45.4875 ] } },
{ "type": "Feature", "properties": { "latitude": 45.5017, "longitude": -73.5673, "location": "Montréal", "year": 2019, "speech_count": 2 }, "geometry": { "type": "Point", "coordinates": [ -73.5673, 45.5017 ] } },
{ "type": "Feature", "properties": { "latitude": 45.8143, "longitude": 9.0784, "location": "Cernobbio", "year": 2019, "speech_count": 1 }, "geometry": { "type": "Point", "coordinates": [ 9.0784, 45.8143 ] } },
{ "type": "Feature", "properties": { "latitude": 45.815, "longitude": 15.9819, "location": "Zagreb", "year": 2019, "speech_count": 1 }, "geometry": { "type": "Point", "coordinates": [ 15.9819, 45.815 ] } },
{ "type": "Feature", "properties": { "latitude": 45.8289, "longitude": 9.0822, "location": "Cernobbio", "year": 2019, "speech_count": 1 }, "geometry": { "type": "Point", "coordinates": [ 9.0822, 45.8289 ] } },
{ "type": "Feature", "properties": { "latitude": 46.2018, "longitude": 6.1417, "location": "Geneva", "year": 2019, "speech_count": 1 }, "geometry": { "type": "Point", "coordinates": [ 6.1417, 46.2018 ] } },
{ "type": "Feature", "properties": { "latitude": 46.2044, "longitude": 6.1432, "location": "Geneva", "year": 2019, "speech_count": 1 }, "geometry": { "type": "Point", "coordinates": [ 6.1432, 46.2044 ] } },
{ "type": "Feature", "properties": { "latitude": 46.5196, "longitude": 6.6323, "location": "Lausanne", "year": 2019, "speech_count": 2 }, "geometry": { "type": "Point", "coordinates": [ 6.6323, 46.5196 ] } },
{ "type": "Feature", "properties": { "latitude": 46.948, "longitude": 7.4458, "location": "Berne", "year": 2019, "speech_count": 1 }, "geometry": { "type": "Point", "coordinates": [ 7.4458, 46.948 ] } },
{ "type": "Feature", "properties": { "latitude": 46.948, "longitude": 7.4474, "location": "Berne", "year": 2019, "speech_count": 9 }, "geometry": { "type": "Point", "coordinates": [ 7.4474, 46.948 ] } },
{ "type": "Feature", "properties": { "latitude": 46.9481, "longitude": 7.4474, "location": "Berne", "year": 2019, "speech_count": 1 }, "geometry": { "type": "Point", "coordinates": [ 7.4474, 46.9481 ] } },
{ "type": "Feature", "properties": { "latitude": 47.3769, "longitude": 8.5417, "location": "Zurich", "year": 2019, "speech_count": 4 }, "geometry": { "type": "Point", "coordinates": [ 8.5417, 47.3769 ] } },
{ "type": "Feature", "properties": { "latitude": 47.4979, "longitude": 19.0402, "location": "Budapest", "year": 2019, "speech_count": 1 }, "geometry": { "type": "Point", "coordinates": [ 19.0402, 47.4979 ] } },
{ "type": "Feature", "properties": { "latitude": 47.5582, "longitude": 7.5898, "location": "Basel", "year": 2019, "speech_count": 1 }, "geometry": { "type": "Point", "coordinates": [ 7.5898, 47.5582 ] } },
{ "type": "Feature", "properties": { "latitude": 47.5596, "longitude": 7.5889, "location": "Basel", "year": 2019, "speech_count": 1 }, "geometry": { "type": "Point", "coordinates": [ 7.5889, 47.5596 ] } },
{ "type": "Feature", "properties": { "latitude": 48.1351, "longitude": 11.582, "location": "Munich", "year": 2019, "speech_count": 2 }, "geometry": { "type": "Point", "coordinates": [ 11.582, 48.1351 ] } },
{ "type": "Feature", "properties": { "latitude": 48.1371, "longitude": 11.5754, "location": "München", "year": 2019, "speech_count": 1 }, "geometry": { "type": "Point", "coordinates": [ 11.5754, 48.1371 ] } },
{ "type": "Feature", "properties": { "latitude": 48.1374, "longitude": 11.5755, "location": "Munich", "year": 2019, "speech_count": 1 }, "geometry": { "type": "Point", "coordinates": [ 11.5755, 48.1374 ] } },
{ "type": "Feature", "properties": { "latitude": 48.1486, "longitude": 17.1077, "location": "Bratislava", "year": 2019, "speech_count": 3 }, "geometry": { "type": "Point", "coordinates": [ 17.1077, 48.1486 ] } },
{ "type": "Feature", "properties": { "latitude": 48.2082, "longitude": 16.3738, "location": "Vienna", "year": 2019, "speech_count": 6 }, "geometry": { "type": "Point", "coordinates": [ 16.3738, 48.2082 ] } },
{ "type": "Feature", "properties": { "latitude": 48.5834, "longitude": 7.7459, "location": "Strasbourg", "year": 2019, "speech_count": 1 }, "geometry": { "type": "Point", "coordinates": [ 7.7459, 48.5834 ] } },
{ "type": "Feature", "properties": { "latitude": 48.5834, "longitude": 7.7469, "location": "Strasbourg", "year": 2019, "speech_count": 1 }, "geometry": { "type": "Point", "coordinates": [ 7.7469, 48.5834 ] } },
{ "type": "Feature", "properties": { "latitude": 48.5834, "longitude": 7.7489, "location": "Strasbourg", "year": 2019, "speech_count": 1 }, "geometry": { "type": "Point", "coordinates": [ 7.7489, 48.5834 ] } },
{ "type": "Feature", "properties": { "latitude": 48.8566, "longitude": 2.3515, "location": "Paris", "year": 2019, "speech_count": 1 }, "geometry": { "type": "Point", "coordinates": [ 2.3515, 48.8566 ] } },
{ "type": "Feature", "properties": { "latitude": 48.8566, "longitude": 2.3522, "location": "Paris", "year": 2019, "speech_count": 25 }, "geometry": { "type": "Point", "coordinates": [ 2.3522, 48.8566 ] } },
{ "type": "Feature", "properties": { "latitude": 48.8582, "longitude": 2.2945, "location": "Paris", "year": 2019, "speech_count": 6 }, "geometry": { "type": "Point", "coordinates": [ 2.2945, 48.8582 ] } },
{ "type": "Feature", "properties": { "latitude": 49.2827, "longitude": -123.1207, "location": "Vancouver", "year": 2019, "speech_count": 1 }, "geometry": { "type": "Point", "coordinates": [ -123.1207, 49.2827 ] } },
{ "type": "Feature", "properties": { "latitude": 49.4878, "longitude": 8.4667, "location": "Mannheim", "year": 2019, "speech_count": 1 }, "geometry": { "type": "Point", "coordinates": [ 8.4667, 49.4878 ] } },
{ "type": "Feature", "properties": { "latitude": 49.6116, "longitude": 6.1319, "location": "Luxembourg", "year": 2019, "speech_count": 7 }, "geometry": { "type": "Point", "coordinates": [ 6.1319, 49.6116 ] } },
{ "type": "Feature", "properties": { "latitude": 49.8951, "longitude": -97.1384, "location": "Winnipeg", "year": 2019, "speech_count": 1 }, "geometry": { "type": "Point", "coordinates": [ -97.1384, 49.8951 ] } },
{ "type": "Feature", "properties": { "latitude": 49.9875, "longitude": 8.1489, "location": "Eltville", "year": 2019, "speech_count": 1 }, "geometry": { "type": "Point", "coordinates": [ 8.1489, 49.9875 ] } },
{ "type": "Feature", "properties": { "latitude": 50.0755, "longitude": 14.4378, "location": "Prague", "year": 2019, "speech_count": 1 }, "geometry": { "type": "Point", "coordinates": [ 14.4378, 50.0755 ] } },
{ "type": "Feature", "properties": { "latitude": 50.0878, "longitude": 14.4205, "location": "Prague", "year": 2019, "speech_count": 1 }, "geometry": { "type": "Point", "coordinates": [ 14.4205, 50.0878 ] } },
{ "type": "Feature", "properties": { "latitude": 50.1106, "longitude": 8.6821, "location": "Frankfurt", "year": 2019, "speech_count": 1 }, "geometry": { "type": "Point", "coordinates": [ 8.6821, 50.1106 ] } },
{ "type": "Feature", "properties": { "latitude": 50.1109, "longitude": 8.6821, "location": "Frankfurt", "year": 2019, "speech_count": 63 }, "geometry": { "type": "Point", "coordinates": [ 8.6821, 50.1109 ] } },
{ "type": "Feature", "properties": { "latitude": 50.4422, "longitude": 30.5367, "location": "Kyiv", "year": 2019, "speech_count": 1 }, "geometry": { "type": "Point", "coordinates": [ 30.5367, 50.4422 ] } },
{ "type": "Feature", "properties": { "latitude": 50.4501, "longitude": 30.5234, "location": "Kiev", "year": 2019, "speech_count": 2 }, "geometry": { "type": "Point", "coordinates": [ 30.5234, 50.4501 ] } },
{ "type": "Feature", "properties": { "latitude": 50.4501, "longitude": 30.5234, "location": "Kyiv", "year": 2019, "speech_count": 8 }, "geometry": { "type": "Point", "coordinates": [ 30.5234, 50.4501 ] } },
{ "type": "Feature", "properties": { "latitude": 50.4547, "longitude": 30.5238, "location": "Kyiv", "year": 2019, "speech_count": 1 }, "geometry": { "type": "Point", "coordinates": [ 30.5238, 50.4547 ] } },
{ "type": "Feature", "properties": { "latitude": 50.6776, "longitude": 7.1905, "location": "Königswinter", "year": 2019, "speech_count": 1 }, "geometry": { "type": "Point", "coordinates": [ 7.1905, 50.6776 ] } },
{ "type": "Feature", "properties": { "latitude": 50.7116, "longitude": -1.8892, "location": "Bournemouth", "year": 2019, "speech_count": 1 }, "geometry": { "type": "Point", "coordinates": [ -1.8892, 50.7116 ] } },
{ "type": "Feature", "properties": { "latitude": 50.8465, "longitude": 4.3517, "location": "Brussels", "year": 2019, "speech_count": 25 }, "geometry": { "type": "Point", "coordinates": [ 4.3517, 50.8465 ] } },
{ "type": "Feature", "properties": { "latitude": 51.0447, "longitude": -114.0501, "location": "Calgary", "year": 2019, "speech_count": 1 }, "geometry": { "type": "Point", "coordinates": [ -114.0501, 51.0447 ] } },
{ "type": "Feature", "properties": { "latitude": 51.0514, "longitude": 13.7383, "location": "Dresden", "year": 2019, "speech_count": 1 }, "geometry": { "type": "Point", "coordinates": [ 13.7383, 51.0514 ] } },
{ "type": "Feature", "properties": { "latitude": 51.1411, "longitude": -2.8015, "location": "Somerset", "year": 2019, "speech_count": 1 }, "geometry": { "type": "Point", "coordinates": [ -2.8015, 51.1411 ] } },
{ "type": "Feature", "properties": { "latitude": 51.2254, "longitude": 6.7763, "location": "Düsseldorf", "year": 2019, "speech_count": 1 }, "geometry": { "type": "Point", "coordinates": [ 6.7763, 51.2254 ] } },
{ "type": "Feature", "properties": { "latitude": 51.2254, "longitude": 6.7764, "location": "Düsseldorf", "year": 2019, "speech_count": 1 }, "geometry": { "type": "Point", "coordinates": [ 6.7764, 51.2254 ] } },
{ "type": "Feature", "properties": { "latitude": 51.3397, "longitude": 12.3731, "location": "Leipzig", "year": 2019, "speech_count": 1 }, "geometry": { "type": "Point", "coordinates": [ 12.3731, 51.3397 ] } },
{ "type": "Feature", "properties": { "latitude": 51.3811, "longitude": 1.3881, "location": "Margate", "year": 2019, "speech_count": 1 }, "geometry": { "type": "Point", "coordinates": [ 1.3881, 51.3811 ] } },
{ "type": "Feature", "properties": { "latitude": 51.5074, "longitude": -0.1278, "location": "London", "year": 2019, "speech_count": 41 }, "geometry": { "type": "Point", "coordinates": [ -0.1278, 51.5074 ] } },
{ "type": "Feature", "properties": { "latitude": 51.8978, "longitude": -8.4734, "location": "Cork", "year": 2019, "speech_count": 1 }, "geometry": { "type": "Point", "coordinates": [ -8.4734, 51.8978 ] } },
{ "type": "Feature", "properties": { "latitude": 52.237, "longitude": 21.0175, "location": "Warsaw", "year": 2019, "speech_count": 1 }, "geometry": { "type": "Point", "coordinates": [ 21.0175, 52.237 ] } },
{ "type": "Feature", "properties": { "latitude": 52.2559, "longitude": -1.5889, "location": "Warwick", "year": 2019, "speech_count": 1 }, "geometry": { "type": "Point", "coordinates": [ -1.5889, 52.2559 ] } },
{ "type": "Feature", "properties": { "latitude": 52.2582, "longitude": -7.1095, "location": "Waterford", "year": 2019, "speech_count": 1 }, "geometry": { "type": "Point", "coordinates": [ -7.1095, 52.2582 ] } },
{ "type": "Feature", "properties": { "latitude": 52.3365, "longitude": -6.4633, "location": "Wexford", "year": 2019, "speech_count": 1 }, "geometry": { "type": "Point", "coordinates": [ -6.4633, 52.3365 ] } },
{ "type": "Feature", "properties": { "latitude": 52.3702, "longitude": 4.8952, "location": "Amsterdam", "year": 2019, "speech_count": 5 }, "geometry": { "type": "Point", "coordinates": [ 4.8952, 52.3702 ] } },
{ "type": "Feature", "properties": { "latitude": 52.52, "longitude": 13.405, "location": "Berlin", "year": 2019, "speech_count": 5 }, "geometry": { "type": "Point", "coordinates": [ 13.405, 52.52 ] } },
{ "type": "Feature", "properties": { "latitude": 53.2707, "longitude": -9.0568, "location": "Galway", "year": 2019, "speech_count": 1 }, "geometry": { "type": "Point", "coordinates": [ -9.0568, 53.2707 ] } },
{ "type": "Feature", "properties": { "latitude": 53.3498, "longitude": -6.2603, "location": "Dublin", "year": 2019, "speech_count": 26 }, "geometry": { "type": "Point", "coordinates": [ -6.2603, 53.3498 ] } },
{ "type": "Feature", "properties": { "latitude": 53.3811, "longitude": -1.4701, "location": "Sheffield", "year": 2019, "speech_count": 1 }, "geometry": { "type": "Point", "coordinates": [ -1.4701, 53.3811 ] } },
{ "type": "Feature", "properties": { "latitude": 53.4808, "longitude": -2.2426, "location": "Manchester", "year": 2019, "speech_count": 2 }, "geometry": { "type": "Point", "coordinates": [ -2.2426, 53.4808 ] } },
{ "type": "Feature", "properties": { "latitude": 53.5444, "longitude": -113.4909, "location": "Edmonton, Alberta", "year": 2019, "speech_count": 1 }, "geometry": { "type": "Point", "coordinates": [ -113.4909, 53.5444 ] } },
{ "type": "Feature", "properties": { "latitude": 53.5756, "longitude": -0.8515, "location": "Scunthorpe", "year": 2019, "speech_count": 1 }, "geometry": { "type": "Point", "coordinates": [ -0.8515, 53.5756 ] } },
{ "type": "Feature", "properties": { "latitude": 53.9004, "longitude": 27.5605, "location": "Minsk", "year": 2019, "speech_count": 2 }, "geometry": { "type": "Point", "coordinates": [ 27.5605, 53.9004 ] } },
{ "type": "Feature", "properties": { "latitude": 54.0058, "longitude": -6.3919, "location": "Dundalk", "year": 2019, "speech_count": 1 }, "geometry": { "type": "Point", "coordinates": [ -6.3919, 54.0058 ] } },
{ "type": "Feature", "properties": { "latitude": 54.6896, "longitude": 25.2799, "location": "Vilnius", "year": 2019, "speech_count": 5 }, "geometry": { "type": "Point", "coordinates": [ 25.2799, 54.6896 ] } },
{ "type": "Feature", "properties": { "latitude": 55.6761, "longitude": 12.5683, "location": "Copenhagen", "year": 2019, "speech_count": 5 }, "geometry": { "type": "Point", "coordinates": [ 12.5683, 55.6761 ] } },
{ "type": "Feature", "properties": { "latitude": 55.7558, "longitude": 37.6173, "location": "Moscow", "year": 2019, "speech_count": 6 }, "geometry": { "type": "Point", "coordinates": [ 37.6173, 55.7558 ] } },
{ "type": "Feature", "properties": { "latitude": 55.9533, "longitude": -3.1883, "location": "Edinburgh", "year": 2019, "speech_count": 1 }, "geometry": { "type": "Point", "coordinates": [ -3.1883, 55.9533 ] } },
{ "type": "Feature", "properties": { "latitude": 56.8796, "longitude": 24.6032, "location": "Latvia", "year": 2019, "speech_count": 1 }, "geometry": { "type": "Point", "coordinates": [ 24.6032, 56.8796 ] } },
{ "type": "Feature", "properties": { "latitude": 57.4795, "longitude": -4.2258, "location": "Inverness", "year": 2019, "speech_count": 1 }, "geometry": { "type": "Point", "coordinates": [ -4.2258, 57.4795 ] } },
{ "type": "Feature", "properties": { "latitude": 59.2786, "longitude": 15.2055, "location": "Örebro", "year": 2019, "speech_count": 1 }, "geometry": { "type": "Point", "coordinates": [ 15.2055, 59.2786 ] } },
{ "type": "Feature", "properties": { "latitude": 59.3293, "longitude": 18.0686, "location": "Stockholm", "year": 2019, "speech_count": 5 }, "geometry": { "type": "Point", "coordinates": [ 18.0686, 59.3293 ] } },
{ "type": "Feature", "properties": { "latitude": 59.3345, "longitude": 18.0632, "location": "Stockholm", "year": 2019, "speech_count": 3 }, "geometry": { "type": "Point", "coordinates": [ 18.0632, 59.3345 ] } },
{ "type": "Feature", "properties": { "latitude": 59.9138, "longitude": 10.7387, "location": "Oslo", "year": 2019, "speech_count": 1 }, "geometry": { "type": "Point", "coordinates": [ 10.7387, 59.9138 ] } },
{ "type": "Feature", "properties": { "latitude": 59.9138, "longitude": 10.7522, "location": "Oslo", "year": 2019, "speech_count": 4 }, "geometry": { "type": "Point", "coordinates": [ 10.7522, 59.9138 ] } },
{ "type": "Feature", "properties": { "latitude": 59.9139, "longitude": 10.7522, "location": "Oslo", "year": 2019, "speech_count": 4 }, "geometry": { "type": "Point", "coordinates": [ 10.7522, 59.9139 ] } },
{ "type": "Feature", "properties": { "latitude": 60.1699, "longitude": 24.9384, "location": "Helsinki", "year": 2019, "speech_count": 14 }, "geometry": { "type": "Point", "coordinates": [ 24.9384, 60.1699 ] } },
{ "type": "Feature", "properties": { "latitude": 63.7501, "longitude": -68.5194, "location": "Iqaluit", "year": 2019, "speech_count": 1 }, "geometry": { "type": "Point", "coordinates": [ -68.5194, 63.7501 ] } },
{ "type": "Feature", "properties": { "latitude": 64.1265, "longitude": -21.8174, "location": "Reykjavik", "year": 2019, "speech_count": 1 }, "geometry": { "type": "Point", "coordinates": [ -21.8174, 64.1265 ] } },
{ "type": "Feature", "properties": { "latitude": 64.1465, "longitude": -21.9324, "location": "Reykjavik", "year": 2019, "speech_count": 1 }, "geometry": { "type": "Point", "coordinates": [ -21.9324, 64.1465 ] } }
]
}
