{
"type": "FeatureCollection",
"name": "speeches_1996",
"crs": { "type": "name", "properties": { "name": "urn:ogc:def:crs:OGC:1.3:CRS84" } },
"features": [
{ "type": "Feature", "properties": { "latitude": 22.3193, "longitude": 114.1694, "location": "Hong Kong", "year": 1996, "speech_count": 1 }, "geometry": { "type": "Point", "coordinates": [ 114.1694, 22.3193 ] } },
{ "type": "Feature", "properties": { "latitude": 28.6448, "longitude": 77.2167, "location": "Delhi", "year": 1996, "speech_count": 1 }, "geometry": { "type": "Point", "coordinates": [ 77.2167, 28.6448 ] } },
{ "type": "Feature", "properties": { "latitude": 35.6895, "longitude": 139.6917, "location": "Tokyo", "year": 1996, "speech_count": 1 }, "geometry": { "type": "Point", "coordinates": [ 139.6917, 35.6895 ] } },
{ "type": "Feature", "properties": { "latitude": 38.8951, "longitude": -77.0364, "location": "Washington", "year": 1996, "speech_count": 2 }, "geometry": { "type": "Point", "coordinates": [ -77.0364, 38.8951 ] } },
{ "type": "Feature", "properties": { "latitude": 50.8465, "longitude": 4.3517, "location": "Brussels", "year": 1996, "speech_count": 1 }, "geometry": { "type": "Point", "coordinates": [ 4.3517, 50.8465 ] } },
{ "type": "Feature", "properties": { "latitude": 51.5074, "longitude": -0.1278, "location": "London", "year": 1996, "speech_count": 1 }, "geometry": { "type": "Point", "coordinates": [ -0.1278, 51.5074 ] } }
]
}
